SiteNumber, SiteName, SiteLongitude, SiteLatitude, SiteNWISURL
7227420,"Cramer Ck at US Hwy 54 nr Dalhart, TX",-102.8931667,35.75125,https://waterdata.usgs.gov/nwis/inventory?agency_code=USGS&site_no=07227420
7227500,"Canadian Rv nr Amarillo, TX",-101.879628,35.4703261,https://waterdata.usgs.gov/nwis/inventory?agency_code=USGS&site_no=07227500
7227890,"Big Blue Ck nr Fritch, TX",-101.6625278,35.72077778,https://waterdata.usgs.gov/nwis/inventory?agency_code=USGS&site_no=07227890
7228000,"Canadian Rv nr Canadian, TX",-100.3706884,35.935042,https://waterdata.usgs.gov/nwis/inventory?agency_code=USGS&site_no=07228000
7233500,"Palo Duro Ck nr Spearman, TX",-101.305993,36.20225497,https://waterdata.usgs.gov/nwis/inventory?agency_code=USGS&site_no=07233500
7235000,"Wolf Ck at Lipscomb, TX",-100.2756889,36.23864885,https://waterdata.usgs.gov/nwis/inventory?agency_code=USGS&site_no=07235000
7295500,"Tierra Blanca Ck abv Buffalo Lk nr Umbarger, TX",-102.1760295,34.84867146,https://waterdata.usgs.gov/nwis/inventory?agency_code=USGS&site_no=07295500
7297910,"Pr Dog Twn Fk Red Rv nr Wayside, TX",-101.4140578,34.83755505,https://waterdata.usgs.gov/nwis/inventory?agency_code=USGS&site_no=07297910
7298500,"Pr Dog Twn Fk Red Rv nr Brice, TX",-100.9406994,34.62783574,https://waterdata.usgs.gov/nwis/inventory?agency_code=USGS&site_no=07298500
7299540,"Pr Dog Twn Fk Red Rv nr Childress, TX",-100.1940023,34.56922728,https://waterdata.usgs.gov/nwis/inventory?agency_code=USGS&site_no=07299540
7299670,"Groesbeck Ck at SH 6 nr Quanah, TX",-99.7403719,34.35451979,https://waterdata.usgs.gov/nwis/inventory?agency_code=USGS&site_no=07299670
7299890,"Lelia Lk Ck bl Bell Ck nr Hedley, TX",-100.6965246,34.93560669,https://waterdata.usgs.gov/nwis/inventory?agency_code=USGS&site_no=07299890
7300000,"Salt Fk Red Rv nr Wellington, TX",-100.220949,34.95755294,https://waterdata.usgs.gov/nwis/inventory?agency_code=USGS&site_no=07300000
7301300,"N Fk Red Rv nr Shamrock, TX",-100.2417855,35.2642163,https://waterdata.usgs.gov/nwis/inventory?agency_code=USGS&site_no=07301300
7301410,"Sweetwater Ck nr Kelton, TX",-100.1209501,35.47310419,https://waterdata.usgs.gov/nwis/inventory?agency_code=USGS&site_no=07301410
7308200,"Pease Rv nr Vernon, TX",-99.3233333,34.1795833,https://waterdata.usgs.gov/nwis/inventory?agency_code=USGS&site_no=07308200
7308500,"Red Rv nr Burkburnett, TX",-98.5317234,34.11009327,https://waterdata.usgs.gov/nwis/inventory?agency_code=USGS&site_no=07308500
7311700,"N Wichita Rv nr Truscott, TX",-99.7864822,33.82064216,https://waterdata.usgs.gov/nwis/inventory?agency_code=USGS&site_no=07311700
7311800,"S Wichita Rv nr Benjamin, TX",-99.8009252,33.644257,https://waterdata.usgs.gov/nwis/inventory?agency_code=USGS&site_no=07311800
7311900,"Wichita Rv nr Seymour, TX",-99.3886905,33.70036966,https://waterdata.usgs.gov/nwis/inventory?agency_code=USGS&site_no=07311900
7312100,"Wichita Rv nr Mabelle, TX",-99.1428495,33.7600934,https://waterdata.usgs.gov/nwis/inventory?agency_code=USGS&site_no=07312100
7312110,"S Side Canal nr Dundee, TX",-98.932844,33.81398475,https://waterdata.usgs.gov/nwis/inventory?agency_code=USGS&site_no=07312110
7312200,"Beaver Ck nr Electra, TX",-98.9050666,33.90592785,https://waterdata.usgs.gov/nwis/inventory?agency_code=USGS&site_no=07312200
7312330,"Wichita Rv at FM 368 nr Iowa Park, TX",-98.7072222,33.89694444,https://waterdata.usgs.gov/nwis/inventory?agency_code=USGS&site_no=07312330
7312500,"Wichita Rv at Wichita Falls, TX",-98.5336663,33.90954178,https://waterdata.usgs.gov/nwis/inventory?agency_code=USGS&site_no=07312500
7312610,"Holliday Ck at Wichita Falls, TX",-98.4988889,33.88444444,https://waterdata.usgs.gov/nwis/inventory?agency_code=USGS&site_no=07312610
7312700,"Wichita Rv nr Charlie, TX",-98.2967139,34.0531504,https://waterdata.usgs.gov/nwis/inventory?agency_code=USGS&site_no=07312700
7314500,"Little Wichita Rv nr Archer City, TX",-98.6131124,33.66260225,https://waterdata.usgs.gov/nwis/inventory?agency_code=USGS&site_no=07314500
7314900,"Little Wichita Rv abv Henrietta, TX",-98.2400458,33.8267666,https://waterdata.usgs.gov/nwis/inventory?agency_code=USGS&site_no=07314900
7315200,"E Fk Little Wichita Rv nr Henrietta, TX",-98.0850406,33.81287833,https://waterdata.usgs.gov/nwis/inventory?agency_code=USGS&site_no=07315200
7315510,"Beaver Ck nr Ringgold, TX",-97.9438472,33.85540278,https://waterdata.usgs.gov/nwis/inventory?agency_code=USGS&site_no=07315510
7315525,"Belknap Ck nr Ringgold, TX",-97.8863139,33.8069833,https://waterdata.usgs.gov/nwis/inventory?agency_code=USGS&site_no=07315525
7316000,"Red River near Gainesville, TX",-97.1600129,33.7278833,https://waterdata.usgs.gov/nwis/inventory?agency_code=USGS&site_no=07316000
7331600,"Red River at Denison Dam nr Denison, TX",-96.5633264,33.81899124,https://waterdata.usgs.gov/nwis/inventory?agency_code=USGS&site_no=07331600
7332620,"Bois D'Arc Ck at FM 1396 nr Honey Grove, TX",-95.9844444,33.6822222,https://waterdata.usgs.gov/nwis/inventory?agency_code=USGS&site_no=07332620
7332622,"Bois D'Arc Ck at FM 409 nr Honey Grove, TX",-95.9611111,33.74416667,https://waterdata.usgs.gov/nwis/inventory?agency_code=USGS&site_no=07332622
7335500,"Red River at Arthur City, TX",-95.5019023,33.8751049,https://waterdata.usgs.gov/nwis/inventory?agency_code=USGS&site_no=07335500
7336820,"Red River near De Kalb, TX",-94.6943774,33.68400005,https://waterdata.usgs.gov/nwis/inventory?agency_code=USGS&site_no=07336820
7342465,"S Sulphur Rv at Commerce, TX",-95.9141328,33.21177979,https://waterdata.usgs.gov/nwis/inventory?agency_code=USGS&site_no=07342465
7342480,"Middle Sulphur Rv at Commerce, TX",-95.9155217,33.26650079,https://waterdata.usgs.gov/nwis/inventory?agency_code=USGS&site_no=07342480
7342500,"S Sulphur Rv nr Cooper, TX",-95.5949562,33.356499,https://waterdata.usgs.gov/nwis/inventory?agency_code=USGS&site_no=07342500
7343000,"N Sulphur Rv nr Cooper, TX",-95.5877347,33.47483009,https://waterdata.usgs.gov/nwis/inventory?agency_code=USGS&site_no=07343000
7343200,"Sulphur Rv nr Talco, TX",-95.1324428,33.3862233,https://waterdata.usgs.gov/nwis/inventory?agency_code=USGS&site_no=07343200
7343356,"Cuthand Ck at FM 910 nr Cuthand, TX",-95.0513889,33.49888889,https://waterdata.usgs.gov/nwis/inventory?agency_code=USGS&site_no=07343356
7343450,"Sulphur Rv at IH 30 nr Dalby Springs, TX",-94.6980556,33.30944444,https://waterdata.usgs.gov/nwis/inventory?agency_code=USGS&site_no=07343450
7343500,"White Oak Ck nr Talco, TX",-95.0927184,33.32233617,https://waterdata.usgs.gov/nwis/inventory?agency_code=USGS&site_no=07343500
7343840,"White Oak Ck at IH 30 nr Omaha, TX",-94.8025,33.2747222,https://waterdata.usgs.gov/nwis/inventory?agency_code=USGS&site_no=07343840
7344100,"Anderson Ck at Hwy 98 nr Simms, TX",-94.4980556,33.38444444,https://waterdata.usgs.gov/nwis/inventory?agency_code=USGS&site_no=07344100
7344210,"Sulphur Rv nr Texarkana, TX",-94.1513889,33.30416667,https://waterdata.usgs.gov/nwis/inventory?agency_code=USGS&site_no=07344210
7344493,"Big Cypress Ck at US Hwy 271 nr Pittsburg, TX",-94.9652278,33.07293056,https://waterdata.usgs.gov/nwis/inventory?agency_code=USGS&site_no=07344493
7344500,"Big Cypress Ck nr Pittsburg, TX",-94.8821554,33.02095787,https://waterdata.usgs.gov/nwis/inventory?agency_code=USGS&site_no=07344500
7346000,"Big Cypress Bayou nr Jefferson, TX",-94.4988102,32.74958345,https://waterdata.usgs.gov/nwis/inventory?agency_code=USGS&site_no=07346000
7346045,"Black Cypress Bayou at Jefferson, TX",-94.3574153,32.7779173,https://waterdata.usgs.gov/nwis/inventory?agency_code=USGS&site_no=07346045
7346050,"Little Cypress Ck nr Ore City, TX",-94.7510435,32.6726406,https://waterdata.usgs.gov/nwis/inventory?agency_code=USGS&site_no=07346050
7346070,"Little Cypress Bayou nr Jefferson, TX",-94.3460265,32.71291998,https://waterdata.usgs.gov/nwis/inventory?agency_code=USGS&site_no=07346070
7346080,"Big Cypress Ck abv SH 43 nr Karnack, TX",-94.2325,32.7386111,https://waterdata.usgs.gov/nwis/inventory?agency_code=USGS&site_no=07346080
8017200,"Cowleech Fk Sabine Rv at Greenville, TX",-96.0769164,33.1328933,https://waterdata.usgs.gov/nwis/inventory?agency_code=USGS&site_no=08017200
8017300,"S Fk Sabine Rv nr Quinlan, TX",-96.2533118,32.89790085,https://waterdata.usgs.gov/nwis/inventory?agency_code=USGS&site_no=08017300
8017410,"Sabine Rv nr Wills Point, TX",-95.9194109,32.8062358,https://waterdata.usgs.gov/nwis/inventory?agency_code=USGS&site_no=08017410
8018500,"Sabine Rv nr Mineola, TX",-95.4857901,32.61374667,https://waterdata.usgs.gov/nwis/inventory?agency_code=USGS&site_no=08018500
8019000,"Lake Fk Ck nr Quitman, TX",-95.4630094,32.76318386,https://waterdata.usgs.gov/nwis/inventory?agency_code=USGS&site_no=08019000
8019200,"Sabine Rv nr Hawkins, TX",-95.206614,32.55986369,https://waterdata.usgs.gov/nwis/inventory?agency_code=USGS&site_no=08019200
8019500,"Big Sandy Ck nr Big Sandy, TX",-95.0916099,32.6040291,https://waterdata.usgs.gov/nwis/inventory?agency_code=USGS&site_no=08019500
8020000,"Sabine Rv nr Gladewater, TX",-94.9602175,32.52708909,https://waterdata.usgs.gov/nwis/inventory?agency_code=USGS&site_no=08020000
8020450,"Sabine Rv abv Longview, TX",-94.80438,32.47987044,https://waterdata.usgs.gov/nwis/inventory?agency_code=USGS&site_no=08020450
8020700,"Rabbit Ck at Kilgore, TX",-94.9032716,32.38820599,https://waterdata.usgs.gov/nwis/inventory?agency_code=USGS&site_no=08020700
8020900,"Sabine Rv bl Longview, TX",-94.7099324,32.41681793,https://waterdata.usgs.gov/nwis/inventory?agency_code=USGS&site_no=08020900
8022040,"Sabine Rv nr Beckville, TX",-94.3535302,32.32737887,https://waterdata.usgs.gov/nwis/inventory?agency_code=USGS&site_no=08022040
8022120,"Sabine Rv nr Carthage, TX",-94.22525,32.2249722,https://waterdata.usgs.gov/nwis/inventory?agency_code=USGS&site_no=08022120
8025360,"Sabine Rv at Toledo Bd Res nr Burkeville, TX",-93.5660077,31.1737991,https://waterdata.usgs.gov/nwis/inventory?agency_code=USGS&site_no=08025360
8026000,"Sabine Rv nr Burkeville, TX",-93.5196165,31.06408004,https://waterdata.usgs.gov/nwis/inventory?agency_code=USGS&site_no=08026000
8028500,"Sabine Rv nr Bon Wier, TX",-93.608508,30.74714557,https://waterdata.usgs.gov/nwis/inventory?agency_code=USGS&site_no=08028500
8029500,"Big Cow Ck nr Newton, TX",-93.7855556,30.81888889,https://waterdata.usgs.gov/nwis/inventory?agency_code=USGS&site_no=08029500
8029600,"Simms Branch nr Call, TX",-93.741475,30.52497778,https://waterdata.usgs.gov/nwis/inventory?agency_code=USGS&site_no=08029600
8030500,"Sabine Rv nr Ruliff, TX",-93.7437784,30.30381684,https://waterdata.usgs.gov/nwis/inventory?agency_code=USGS&site_no=08030500
8030520,"Sabine Rv at Intl Paper nr Orange, TX",-93.7184194,30.19985278,https://waterdata.usgs.gov/nwis/inventory?agency_code=USGS&site_no=08030520
8030530,"Sabine Rv at I-10 nr Orange, TX",-93.7017833,30.127725,https://waterdata.usgs.gov/nwis/inventory?agency_code=USGS&site_no=08030530
8030540,"Sabine Rv (at Navy Pier) at Orange, TX",-93.7215544,30.09798774,https://waterdata.usgs.gov/nwis/inventory?agency_code=USGS&site_no=08030540
8030730,"Adams Bayou at FM 3247 nr Orange, TX",-93.7866111,30.13194444,https://waterdata.usgs.gov/nwis/inventory?agency_code=USGS&site_no=08030730
8030800,"Adams Bayou at SH87 nr Orange, TX",-93.7497889,30.09347778,https://waterdata.usgs.gov/nwis/inventory?agency_code=USGS&site_no=08030800
8031000,"Cow Bayou nr Mauriceville, TX",-93.9085058,30.18632045,https://waterdata.usgs.gov/nwis/inventory?agency_code=USGS&site_no=08031000
8031010,"Cow Bayou at FM 1442 nr Orangefield, TX",-93.8963417,30.1079861,https://waterdata.usgs.gov/nwis/inventory?agency_code=USGS&site_no=08031010
8031020,"Cole Ck at I-10 nr Orange, TX",-93.8638139,30.132125,https://waterdata.usgs.gov/nwis/inventory?agency_code=USGS&site_no=08031020
8032000,"Neches Rv nr Neches, TX",-95.430786,31.89239037,https://waterdata.usgs.gov/nwis/inventory?agency_code=USGS&site_no=08032000
8032500,"Neches Rv nr Alto, TX",-95.1659965,31.57945569,https://waterdata.usgs.gov/nwis/inventory?agency_code=USGS&site_no=08032500
8033000,"Neches Rv nr Diboll, TX",-94.8099306,31.13296574,https://waterdata.usgs.gov/nwis/inventory?agency_code=USGS&site_no=08033000
8033500,"Neches Rv nr Rockland, TX",-94.3994444,31.025,https://waterdata.usgs.gov/nwis/inventory?agency_code=USGS&site_no=08033500
8033900,"E Fk Angelina Rv nr Cushing, TX",-94.8232697,31.86017169,https://waterdata.usgs.gov/nwis/inventory?agency_code=USGS&site_no=08033900
8034500,"Mud Ck nr Jacksonville, TX",-95.1607787,31.97655578,https://waterdata.usgs.gov/nwis/inventory?agency_code=USGS&site_no=08034500
8036500,"Angelina Rv nr Alto, TX",-94.9527152,31.67184364,https://waterdata.usgs.gov/nwis/inventory?agency_code=USGS&site_no=08036500
8037050,"Bayou Lanana at Nacogdoches, TX",-94.6413205,31.61629047,https://waterdata.usgs.gov/nwis/inventory?agency_code=USGS&site_no=08037050
8038000,"Attoyac Bayou nr Chireno, TX",-94.3043677,31.50434957,https://waterdata.usgs.gov/nwis/inventory?agency_code=USGS&site_no=08038000
8039100,"Ayish Bayou nr San Augustine, TX",-94.1510289,31.39629597,https://waterdata.usgs.gov/nwis/inventory?agency_code=USGS&site_no=08039100
8040600,"Neches Rv nr Town Bluff, TX",-94.1510237,30.79103579,https://waterdata.usgs.gov/nwis/inventory?agency_code=USGS&site_no=08040600
8041000,"Neches Rv at Evadale, TX",-94.0932373,30.35576378,https://waterdata.usgs.gov/nwis/inventory?agency_code=USGS&site_no=08041000
8041300,"Village Ck at US Hwy 69 nr Village Mills, TX",-94.3946528,30.481425,https://waterdata.usgs.gov/nwis/inventory?agency_code=USGS&site_no=08041300
8041500,"Village Ck nr Kountze, TX",-94.2635215,30.3979862,https://waterdata.usgs.gov/nwis/inventory?agency_code=USGS&site_no=08041500
8041700,"Pine Island Bayou nr Sour Lake, TX",-94.3346324,30.1060464,https://waterdata.usgs.gov/nwis/inventory?agency_code=USGS&site_no=08041700
8041749,"Pine Island Bayou abv BI Pump Plant, Beaumont, TX",-94.1887943,30.17882253,https://waterdata.usgs.gov/nwis/inventory?agency_code=USGS&site_no=08041749
8041780,"Neches Rv Saltwater Barrier at Beaumont, TX",-94.1143469,30.156878,https://waterdata.usgs.gov/nwis/inventory?agency_code=USGS&site_no=08041780
8042558,"W Fk Double Bayou at Eagle Ferry Rd nr Anahuac, TX",-94.6661139,29.67555556,https://waterdata.usgs.gov/nwis/inventory?agency_code=USGS&site_no=08042558
8042800,"W Fk Trinity Rv nr Jacksboro, TX",-98.0805979,33.29177926,https://waterdata.usgs.gov/nwis/inventory?agency_code=USGS&site_no=08042800
8044000,"Big Sandy Ck nr Bridgeport, TX",-97.6947538,33.23178218,https://waterdata.usgs.gov/nwis/inventory?agency_code=USGS&site_no=08044000
8044500,"W Fk Trinity Rv nr Boyd, TX",-97.558636,33.08539917,https://waterdata.usgs.gov/nwis/inventory?agency_code=USGS&site_no=08044500
8044800,"Walnut Ck at Reno, TX",-97.5830798,32.94568035,https://waterdata.usgs.gov/nwis/inventory?agency_code=USGS&site_no=08044800
8045550,"WFk TrinityRv at White Settlement Rd,Fort Worth,TX",-97.4038889,32.7597222,https://waterdata.usgs.gov/nwis/inventory?agency_code=USGS&site_no=08045550
8045850,"Clear Fk Trinity Rv nr Weatherford, TX",-97.6519711,32.74040699,https://waterdata.usgs.gov/nwis/inventory?agency_code=USGS&site_no=08045850
8045995,"Clear Fork Trinity Rv at Kelly Rd nr Aledo, TX",-97.5863889,32.65305556,https://waterdata.usgs.gov/nwis/inventory?agency_code=USGS&site_no=08045995
8047000,"Clear Fk Trinity Rv nr Benbrook, TX",-97.4419642,32.66513275,https://waterdata.usgs.gov/nwis/inventory?agency_code=USGS&site_no=08047000
8047050,"Marys Ck at Benbrook, TX",-97.4472422,32.6951316,https://waterdata.usgs.gov/nwis/inventory?agency_code=USGS&site_no=08047050
8047500,"Clear Fk Trinity Rv at Ft Worth, TX",-97.3589063,32.732353,https://waterdata.usgs.gov/nwis/inventory?agency_code=USGS&site_no=08047500
8048000,"W Fk Trinity Rv at Ft Worth, TX",-97.3325167,32.76096337,https://waterdata.usgs.gov/nwis/inventory?agency_code=USGS&site_no=08048000
8048543,"W Fk Trinity Rv at Beach St, Ft Worth, TX",-97.2894598,32.7517972,https://waterdata.usgs.gov/nwis/inventory?agency_code=USGS&site_no=08048543
8048800,"Big Fossil Ck at Haltom City, TX",-97.2486256,32.80735146,https://waterdata.usgs.gov/nwis/inventory?agency_code=USGS&site_no=08048800
8048970,"Village Ck at Everman, TX",-97.2650142,32.60346909,https://waterdata.usgs.gov/nwis/inventory?agency_code=USGS&site_no=08048970
8049300,"W Fk Trinity Rv at Greenbelt Rd, Fort Worth, TX",-97.1400111,32.7884631,https://waterdata.usgs.gov/nwis/inventory?agency_code=USGS&site_no=08049300
8049500,"W Fk Trinity Rv at Grand Prairie, TX",-96.9944444,32.7625,https://waterdata.usgs.gov/nwis/inventory?agency_code=USGS&site_no=08049500
804956950,"Bear Ck at Shady Grove Rd, Grand Prairie, TX",-97.0098806,32.8044972,https://waterdata.usgs.gov/nwis/inventory?agency_code=USGS&site_no=0804956950
8049580,"Mountain Ck nr Venus, TX",-97.1230646,32.49097237,https://waterdata.usgs.gov/nwis/inventory?agency_code=USGS&site_no=08049580
8049700,"Walnut Ck nr Mansfield, TX",-97.1019533,32.5809695,https://waterdata.usgs.gov/nwis/inventory?agency_code=USGS&site_no=08049700
8050100,"Mountain Ck at Grand Prairie, TX",-96.9261111,32.7498611,https://waterdata.usgs.gov/nwis/inventory?agency_code=USGS&site_no=08050100
8050350,"Elm Fk Trinity Rv at FM 1198 nr Myra, TX",-97.3258333,33.601,https://waterdata.usgs.gov/nwis/inventory?agency_code=USGS&site_no=08050350
8050400,"Elm Fk Trinity Rv at Gainesville, TX",-97.1564016,33.62427479,https://waterdata.usgs.gov/nwis/inventory?agency_code=USGS&site_no=08050400
8050800,"Timber Ck nr Collinsville, TX",-96.9472267,33.55455428,https://waterdata.usgs.gov/nwis/inventory?agency_code=USGS&site_no=08050800
8050840,"Range Ck nr Collinsville, TX",-96.8072191,33.52622016,https://waterdata.usgs.gov/nwis/inventory?agency_code=USGS&site_no=08050840
8051135,"Elm Fk Trinity Rv at Greenbelt nr Pilot Point, TX",-97.0355556,33.3497222,https://waterdata.usgs.gov/nwis/inventory?agency_code=USGS&site_no=08051135
8051500,"Clear Ck nr Sanger, TX",-97.1794587,33.3362269,https://waterdata.usgs.gov/nwis/inventory?agency_code=USGS&site_no=08051500
8052700,"Little Elm Ck nr Aubrey, TX",-96.8927805,33.28344977,https://waterdata.usgs.gov/nwis/inventory?agency_code=USGS&site_no=08052700
8052745,"Doe Br at US Hwy 380 nr Prosper, TX",-96.8919475,33.2192846,https://waterdata.usgs.gov/nwis/inventory?agency_code=USGS&site_no=08052745
8052780,"Hickory Ck at Denton, TX",-97.1419573,33.15178696,https://waterdata.usgs.gov/nwis/inventory?agency_code=USGS&site_no=08052780
8053000,"Elm Fk Trinity Rv nr Lewisville, TX",-96.9611173,33.0456773,https://waterdata.usgs.gov/nwis/inventory?agency_code=USGS&site_no=08053000
8053009,"Indian Ck at FM 2281, Carrollton, TX",-96.9172222,33.02694444,https://waterdata.usgs.gov/nwis/inventory?agency_code=USGS&site_no=08053009
8053090,"Hutton Br at N Denton Dr at Carrollton, TX",-96.9071167,32.9571611,https://waterdata.usgs.gov/nwis/inventory?agency_code=USGS&site_no=08053090
8053430,"Denton Ck at CR 2513 nr Decatur, TX",-97.4170417,33.27791667,https://waterdata.usgs.gov/nwis/inventory?agency_code=USGS&site_no=08053430
8053500,"Denton Ck nr Justin, TX",-97.2905732,33.11901003,https://waterdata.usgs.gov/nwis/inventory?agency_code=USGS&site_no=08053500
8055000,"Denton Ck nr Grapevine, TX",-97.0127857,32.9870677,https://waterdata.usgs.gov/nwis/inventory?agency_code=USGS&site_no=08055000
8055500,"Elm Fk Trinity Rv nr Carrollton, TX",-96.94445,32.965957,https://waterdata.usgs.gov/nwis/inventory?agency_code=USGS&site_no=08055500
8055560,"Elm Fk Trinity Rv at Spur 348, Irving, TX",-96.9305556,32.87333333,https://waterdata.usgs.gov/nwis/inventory?agency_code=USGS&site_no=08055560
8056500,"Turtle Ck at Dallas, TX",-96.8025013,32.80735055,https://waterdata.usgs.gov/nwis/inventory?agency_code=USGS&site_no=08056500
8057000,"Trinity Rv at Dallas, TX",-96.8219464,32.7748517,https://waterdata.usgs.gov/nwis/inventory?agency_code=USGS&site_no=08057000
8057200,"White Rk Ck at Greenville Ave, Dallas, TX",-96.7566664,32.88929207,https://waterdata.usgs.gov/nwis/inventory?agency_code=USGS&site_no=08057200
8057300,"White Rk Ck at White Rk Lk, Dallas, TX",-96.725832,32.80873904,https://waterdata.usgs.gov/nwis/inventory?agency_code=USGS&site_no=08057300
8057410,"Trinity Rv bl Dallas, TX",-96.7358319,32.70763139,https://waterdata.usgs.gov/nwis/inventory?agency_code=USGS&site_no=08057410
8059000,"E Fk Trinity Rv nr McKinney, TX",-96.595824,33.20372724,https://waterdata.usgs.gov/nwis/inventory?agency_code=USGS&site_no=08059000
8059350,"Indian Ck at SH 78 nr Farmersville, TX",-96.3730556,33.225,https://waterdata.usgs.gov/nwis/inventory?agency_code=USGS&site_no=08059350
8059400,"Sister Grove Ck nr Blue Ridge, TX",-96.4830413,33.29455786,https://waterdata.usgs.gov/nwis/inventory?agency_code=USGS&site_no=08059400
8059590,"Wilson Ck Dws of Hwy 75 at McKinney, TX",-96.63805,33.18485,https://waterdata.usgs.gov/nwis/inventory?agency_code=USGS&site_no=08059590
8061000,"E Fk Trinity Rv nr Lavon, TX",-96.4755429,33.02373066,https://waterdata.usgs.gov/nwis/inventory?agency_code=USGS&site_no=08061000
8061480,"Squabble Ck at Shores Blvd nr Rockwall, TX",-96.4736389,32.95225,https://waterdata.usgs.gov/nwis/inventory?agency_code=USGS&site_no=08061480
8061540,"Rowlett Ck nr Sachse, TX",-96.6144378,32.95984447,https://waterdata.usgs.gov/nwis/inventory?agency_code=USGS&site_no=08061540
8061548,"Muddy Ck at Creek Crossing Ln nr Sachse, TX",-96.5564167,32.9858611,https://waterdata.usgs.gov/nwis/inventory?agency_code=USGS&site_no=08061548
8061551,"E Fk Trinity Rv blw Lk Ray Hubbard nr Forney, TX",-96.4941667,32.7986111,https://waterdata.usgs.gov/nwis/inventory?agency_code=USGS&site_no=08061551
8061750,"E Fk Trinity Rv nr Forney, TX",-96.5035991,32.7742947,https://waterdata.usgs.gov/nwis/inventory?agency_code=USGS&site_no=08061750
8062000,"E Fk Trinity Rv nr Crandall, TX",-96.4852651,32.6387442,https://waterdata.usgs.gov/nwis/inventory?agency_code=USGS&site_no=08062000
8062500,"Trinity Rv nr Rosser, TX",-96.4630415,32.42652988,https://waterdata.usgs.gov/nwis/inventory?agency_code=USGS&site_no=08062500
8062575,"Trinity Rv at W Cedar Creek Pkwy nr Dosser, TX",-96.3593056,32.31666667,https://waterdata.usgs.gov/nwis/inventory?agency_code=USGS&site_no=08062575
8062700,"Trinity Rv at Trinidad, TX",-96.1024708,32.14765255,https://waterdata.usgs.gov/nwis/inventory?agency_code=USGS&site_no=08062700
8062800,"Cedar Ck nr Kemp, TX",-96.1127508,32.50347129,https://waterdata.usgs.gov/nwis/inventory?agency_code=USGS&site_no=08062800
8062895,"Kings Ck at SH 34 nr Kaufman, TX",-96.3388889,32.5561111,https://waterdata.usgs.gov/nwis/inventory?agency_code=USGS&site_no=08062895
8063030,"Ash Ck at Hwy 171 nr Malone, TX",-96.8814639,31.90955833,https://waterdata.usgs.gov/nwis/inventory?agency_code=USGS&site_no=08063030
8063040,"Richland Ck at Hwy 22 nr Mertens, TX",-96.9065194,32.05466944,https://waterdata.usgs.gov/nwis/inventory?agency_code=USGS&site_no=08063040
8063048,"White Rk Ck at FM 308 nr Irene, TX",-96.8733333,31.97805556,https://waterdata.usgs.gov/nwis/inventory?agency_code=USGS&site_no=08063048
8063100,"Richland Ck nr Dawson, TX",-96.6813787,31.9384908,https://waterdata.usgs.gov/nwis/inventory?agency_code=USGS&site_no=08063100
8063562,"Chambers Ck at FM 55 nr Avalon, TX",-96.7620056,32.16465,https://waterdata.usgs.gov/nwis/inventory?agency_code=USGS&site_no=08063562
8063590,"Waxahachie Ck at Waxahachie, TX",-96.8505556,32.3822222,https://waterdata.usgs.gov/nwis/inventory?agency_code=USGS&site_no=08063590
8063800,"Waxahachie Ck nr Bardwell, TX",-96.6402676,32.2434807,https://waterdata.usgs.gov/nwis/inventory?agency_code=USGS&site_no=08063800
8064100,"Chambers Ck nr Rice, TX",-96.5202639,32.1984823,https://waterdata.usgs.gov/nwis/inventory?agency_code=USGS&site_no=08064100
8064570,"Trinity Rv at Hwy 287 nr Cayuga, TX",-96.0471667,31.96708333,https://waterdata.usgs.gov/nwis/inventory?agency_code=USGS&site_no=08064570
8064700,"Tehuacana Ck nr Streetman, TX",-96.2899755,31.84849638,https://waterdata.usgs.gov/nwis/inventory?agency_code=USGS&site_no=08064700
8065000,"Trinity Rv nr Oakwood, TX",-95.7894029,31.64850597,https://waterdata.usgs.gov/nwis/inventory?agency_code=USGS&site_no=08065000
8065200,"Upper Keechi Ck nr Oakwood, TX",-95.8882938,31.56989618,https://waterdata.usgs.gov/nwis/inventory?agency_code=USGS&site_no=08065200
8065350,"Trinity Rv nr Crockett, TX",-95.6563407,31.33851319,https://waterdata.usgs.gov/nwis/inventory?agency_code=USGS&site_no=08065350
8065800,"Bedias Ck nr Madisonville, TX",-95.7777778,30.8847222,https://waterdata.usgs.gov/nwis/inventory?agency_code=USGS&site_no=08065800
8066000,"Trinity Rv at Riverside, TX",-95.39883,30.85935514,https://waterdata.usgs.gov/nwis/inventory?agency_code=USGS&site_no=08066000
8066175,"Kickapoo Ck at Onalaska, TX",-95.0803889,30.88675,https://waterdata.usgs.gov/nwis/inventory?agency_code=USGS&site_no=08066175
8066200,"Long King Ck at Livingston, TX",-94.9588237,30.716306,https://waterdata.usgs.gov/nwis/inventory?agency_code=USGS&site_no=08066200
8066250,"Trinity Rv nr Goodrich, TX",-94.9488223,30.57214544,https://waterdata.usgs.gov/nwis/inventory?agency_code=USGS&site_no=08066250
8066300,"Menard Ck nr Rye, TX",-94.7797222,30.48138889,https://waterdata.usgs.gov/nwis/inventory?agency_code=USGS&site_no=08066300
8066500,"Trinity Rv at Romayor, TX",-94.8507622,30.4252067,https://waterdata.usgs.gov/nwis/inventory?agency_code=USGS&site_no=08066500
8067000,"Trinity Rv at Liberty, TX",-94.8182567,30.05771539,https://waterdata.usgs.gov/nwis/inventory?agency_code=USGS&site_no=08067000
8067070,"CWA Canal nr Dayton, TX",-94.8102003,29.96132898,https://waterdata.usgs.gov/nwis/inventory?agency_code=USGS&site_no=08067070
8067100,"Trinity Rv nr Moss Bluff, TX",-94.774366,29.9418847,https://waterdata.usgs.gov/nwis/inventory?agency_code=USGS&site_no=08067100
8067252,"Trinity Rv at Wallisville, TX",-94.7313087,29.8124434,https://waterdata.usgs.gov/nwis/inventory?agency_code=USGS&site_no=08067252
8067500,"Cedar Bayou nr Crosby, TX",-94.9857602,29.97271914,https://waterdata.usgs.gov/nwis/inventory?agency_code=USGS&site_no=08067500
8067525,"Goose Ck at Baytown, TX",-94.9996503,29.77078197,https://waterdata.usgs.gov/nwis/inventory?agency_code=USGS&site_no=08067525
8067548,"W Fk San Jacinto Rv nr Huntsville, TX",-95.675224,30.6460298,https://waterdata.usgs.gov/nwis/inventory?agency_code=USGS&site_no=08067548
8067650,"W Fk San Jacinto Rv bl Lk Conroe nr Conroe, TX",-95.542998,30.34215289,https://waterdata.usgs.gov/nwis/inventory?agency_code=USGS&site_no=08067650
8067690,"Lake Ck nr Dobbin, TX",-95.7691389,30.37152778,https://waterdata.usgs.gov/nwis/inventory?agency_code=USGS&site_no=08067690
8067920,"Lake Ck at Sendera Ranch Rd nr Conroe, TX",-95.5636944,30.25775,https://waterdata.usgs.gov/nwis/inventory?agency_code=USGS&site_no=08067920
8068000,"W Fk San Jacinto Rv nr Conroe, TX",-95.4571616,30.24465738,https://waterdata.usgs.gov/nwis/inventory?agency_code=USGS&site_no=08068000
8068090,"W Fk San Jacinto Rv abv Lk Houston nr Porter, TX",-95.3382222,30.14116667,https://waterdata.usgs.gov/nwis/inventory?agency_code=USGS&site_no=08068090
8068275,"Spring Ck nr Tomball, TX",-95.6460559,30.11993899,https://waterdata.usgs.gov/nwis/inventory?agency_code=USGS&site_no=08068275
8068305,"Dry Ck at FM 2978, The Woodlands, TX",-95.6010278,30.17566667,https://waterdata.usgs.gov/nwis/inventory?agency_code=USGS&site_no=08068305
8068310,"Spring Ck at Kuykendahl Rd, The Woodlands, TX",-95.5416389,30.1703611,https://waterdata.usgs.gov/nwis/inventory?agency_code=USGS&site_no=08068310
8068325,"Willow Ck nr Tomball, TX",-95.5466084,30.10549526,https://waterdata.usgs.gov/nwis/inventory?agency_code=USGS&site_no=08068325
8068390,"Bear Br at Research Blvd, The Woodlands, TX",-95.4911111,30.19055556,https://waterdata.usgs.gov/nwis/inventory?agency_code=USGS&site_no=08068390
8068400,"Panther Br at Gosling Rd, The Woodlands, TX",-95.4838288,30.192159,https://waterdata.usgs.gov/nwis/inventory?agency_code=USGS&site_no=08068400
8068450,"Panther Br nr Spring, TX",-95.4777175,30.1343832,https://waterdata.usgs.gov/nwis/inventory?agency_code=USGS&site_no=08068450
8068500,"Spring Ck nr Spring, TX",-95.4363275,30.11049517,https://waterdata.usgs.gov/nwis/inventory?agency_code=USGS&site_no=08068500
8068700,"Cypress Ck at Sharp Rd nr Hockley, TX",-95.840229,29.92105823,https://waterdata.usgs.gov/nwis/inventory?agency_code=USGS&site_no=08068700
8068720,"Cypress Ck at Katy-Hockley Rd nr Hockley, TX",-95.8082835,29.9502237,https://waterdata.usgs.gov/nwis/inventory?agency_code=USGS&site_no=08068720
8068740,"Cypress Ck at House-Hahl Rd nr Cypress, TX",-95.7177249,29.959112,https://waterdata.usgs.gov/nwis/inventory?agency_code=USGS&site_no=08068740
8068780,"Little Cypress Ck nr Cypress, TX",-95.6974463,30.01605437,https://waterdata.usgs.gov/nwis/inventory?agency_code=USGS&site_no=08068780
8068800,"Cypress Ck at Grant Rd nr Cypress, TX",-95.5985545,29.97355566,https://waterdata.usgs.gov/nwis/inventory?agency_code=USGS&site_no=08068800
8068900,"Cypress Ck at Stuebner-Airline Rd nr Westfield, TX",-95.511885,30.00660994,https://waterdata.usgs.gov/nwis/inventory?agency_code=USGS&site_no=08068900
8069000,"Cypress Ck nr Westfield, TX",-95.428827,30.0357753,https://waterdata.usgs.gov/nwis/inventory?agency_code=USGS&site_no=08069000
8069500,"W Fk San Jacinto Rv nr Humble, TX",-95.2579888,30.02716385,https://waterdata.usgs.gov/nwis/inventory?agency_code=USGS&site_no=08069500
8070000,"E Fk San Jacinto Rv nr Cleveland, TX",-95.1040999,30.33659809,https://waterdata.usgs.gov/nwis/inventory?agency_code=USGS&site_no=08070000
8070200,"E Fk San Jacinto Rv nr New Caney, TX",-95.1243756,30.1454932,https://waterdata.usgs.gov/nwis/inventory?agency_code=USGS&site_no=08070200
8070500,"Caney Ck nr Splendora, TX",-95.3024361,30.25965789,https://waterdata.usgs.gov/nwis/inventory?agency_code=USGS&site_no=08070500
8071000,"Peach Ck at Splendora, TX",-95.1682662,30.2327137,https://waterdata.usgs.gov/nwis/inventory?agency_code=USGS&site_no=08071000
8071280,"Luce Bayou abv Lk Houston nr Huffman, TX",-95.0599294,30.10966019,https://waterdata.usgs.gov/nwis/inventory?agency_code=USGS&site_no=08071280
8072050,"San Jacinto Rv nr Sheldon, TX",-95.0938189,29.87633426,https://waterdata.usgs.gov/nwis/inventory?agency_code=USGS&site_no=08072050
8072300,"Buffalo Bayou nr Katy, TX",-95.8068951,29.74328664,https://waterdata.usgs.gov/nwis/inventory?agency_code=USGS&site_no=08072300
8072350,"Buffalo Bayou nr Fulshear, TX",-95.7671718,29.7230092,https://waterdata.usgs.gov/nwis/inventory?agency_code=USGS&site_no=08072350
8072600,"Buffalo Bayou at State Hwy 6 nr Addicks, TX",-95.6431667,29.76938056,https://waterdata.usgs.gov/nwis/inventory?agency_code=USGS&site_no=08072600
8072680,"S Mayde Ck at Heathergold Dr nr Addicks, TX",-95.7096111,29.8051111,https://waterdata.usgs.gov/nwis/inventory?agency_code=USGS&site_no=08072680
8072730,"Bear Ck nr Barker, TX",-95.6868912,29.8307828,https://waterdata.usgs.gov/nwis/inventory?agency_code=USGS&site_no=08072730
8072760,"Langham Ck at W Little York Rd nr Addicks, TX",-95.646612,29.86717035,https://waterdata.usgs.gov/nwis/inventory?agency_code=USGS&site_no=08072760
8072800,"Langham Ck nr Addicks, TX",-95.6257783,29.8357824,https://waterdata.usgs.gov/nwis/inventory?agency_code=USGS&site_no=08072800
8073100,"Langham Ck at Addicks Res Outflow nr Addicks, TX",-95.6241119,29.79050608,https://waterdata.usgs.gov/nwis/inventory?agency_code=USGS&site_no=08073100
8073500,"Buffalo Bayou nr Addicks, TX",-95.6057782,29.7618958,https://waterdata.usgs.gov/nwis/inventory?agency_code=USGS&site_no=08073500
8073600,"Buffalo Bayou at W Belt Dr, Houston, TX",-95.5577213,29.76217336,https://waterdata.usgs.gov/nwis/inventory?agency_code=USGS&site_no=08073600
8073700,"Buffalo Bayou at Piney Point, TX",-95.5235538,29.7468959,https://waterdata.usgs.gov/nwis/inventory?agency_code=USGS&site_no=08073700
8074000,"Buffalo Bayou at Houston, TX",-95.4085505,29.76022829,https://waterdata.usgs.gov/nwis/inventory?agency_code=USGS&site_no=08074000
8074020,"Whiteoak Bayou at Alabonson Rd, Houston, TX",-95.4804961,29.87078073,https://waterdata.usgs.gov/nwis/inventory?agency_code=USGS&site_no=08074020
8074150,"Cole Ck at Deihl Rd, Houston, TX",-95.4879965,29.8513369,https://waterdata.usgs.gov/nwis/inventory?agency_code=USGS&site_no=08074150
8074250,"Brickhouse Gully at Costa Rica St, Houston, TX",-95.469385,29.82800424,https://waterdata.usgs.gov/nwis/inventory?agency_code=USGS&site_no=08074250
8074500,"Whiteoak Bayou at Houston, TX",-95.3971612,29.77522777,https://waterdata.usgs.gov/nwis/inventory?agency_code=USGS&site_no=08074500
8074540,"Little Whiteoak Bayou at Trimble St, Houston, TX",-95.3680556,29.79277778,https://waterdata.usgs.gov/nwis/inventory?agency_code=USGS&site_no=08074540
8074598,"Whiteoak Bayou at Main St, Houston, TX",-95.358549,29.76661676,https://waterdata.usgs.gov/nwis/inventory?agency_code=USGS&site_no=08074598
8074760,"Brays Bayou at Alief, TX",-95.583,29.7091197,https://waterdata.usgs.gov/nwis/inventory?agency_code=USGS&site_no=08074760
8074800,"Keegans Bayou at Roark Rd nr Houston, TX",-95.5621664,29.65662136,https://waterdata.usgs.gov/nwis/inventory?agency_code=USGS&site_no=08074800
8074810,"Brays Bayou at Gessner Dr, Houston, TX",-95.5282765,29.6727317,https://waterdata.usgs.gov/nwis/inventory?agency_code=USGS&site_no=08074810
8075000,"Brays Bayou at Houston, TX",-95.412162,29.69717469,https://waterdata.usgs.gov/nwis/inventory?agency_code=USGS&site_no=08075000
8075110,"Brays Bayou at MLK Jr Blvd, Houston, TX",-95.3388889,29.71416667,https://waterdata.usgs.gov/nwis/inventory?agency_code=USGS&site_no=08075110
8075400,"Sims Bayou at Hiram Clarke St, Houston, TX",-95.4460522,29.61884399,https://waterdata.usgs.gov/nwis/inventory?agency_code=USGS&site_no=08075400
8075500,"Sims Bayou at Houston, TX",-95.2893807,29.67439687,https://waterdata.usgs.gov/nwis/inventory?agency_code=USGS&site_no=08075500
8075605,"Berry Bayou at Nevada St, Houston, TX",-95.2291011,29.65661915,https://waterdata.usgs.gov/nwis/inventory?agency_code=USGS&site_no=08075605
8075730,"Vince Bayou at Pasadena, TX",-95.216323,29.69467363,https://waterdata.usgs.gov/nwis/inventory?agency_code=USGS&site_no=08075730
8075763,"Hunting Bayou at Hoffman St, Houston, TX",-95.3132696,29.80883745,https://waterdata.usgs.gov/nwis/inventory?agency_code=USGS&site_no=08075763
8075770,"Hunting Bayou at IH 610, Houston, TX",-95.2679907,29.79328217,https://waterdata.usgs.gov/nwis/inventory?agency_code=USGS&site_no=08075770
8075780,"Greens Bayou at Cutten Rd nr Houston, TX",-95.5196633,29.94911178,https://waterdata.usgs.gov/nwis/inventory?agency_code=USGS&site_no=08075780
8075900,"Greens Bayou nr US Hwy 75 nr Houston, TX",-95.4179936,29.95688886,https://waterdata.usgs.gov/nwis/inventory?agency_code=USGS&site_no=08075900
8076000,"Greens Bayou nr Houston, TX",-95.3068796,29.9182784,https://waterdata.usgs.gov/nwis/inventory?agency_code=USGS&site_no=08076000
8076180,"Garners Bayou nr Humble, TX",-95.2339608,29.93386089,https://waterdata.usgs.gov/nwis/inventory?agency_code=USGS&site_no=08076180
8076500,"Halls Bayou at Houston, TX",-95.3349365,29.86189143,https://waterdata.usgs.gov/nwis/inventory?agency_code=USGS&site_no=08076500
8076700,"Greens Bayou at Ley Rd, Houston, TX",-95.2332671,29.8371695,https://waterdata.usgs.gov/nwis/inventory?agency_code=USGS&site_no=08076700
8076997,"Clear Ck at Mykawa St nr Pearland, TX",-95.2974366,29.5968991,https://waterdata.usgs.gov/nwis/inventory?agency_code=USGS&site_no=08076997
8077600,"Clear Ck nr Friendswood, TX",-95.178544,29.51745517,https://waterdata.usgs.gov/nwis/inventory?agency_code=USGS&site_no=08077600
8078000,"Chocolate Bayou nr Alvin, TX",-95.3230476,29.37154349,https://waterdata.usgs.gov/nwis/inventory?agency_code=USGS&site_no=08078000
8079510,"N Fk DMF Brazos Rv at Loop 289 nr Lubbock, TX",-101.7881389,33.55477778,https://waterdata.usgs.gov/nwis/inventory?agency_code=USGS&site_no=08079510
8079600,"DMF Brazos Rv at Justiceburg, TX",-101.1976302,33.03843236,https://waterdata.usgs.gov/nwis/inventory?agency_code=USGS&site_no=08079600
8080500,"DMF Brazos Rv nr Aspermont, TX",-100.1806589,33.0081577,https://waterdata.usgs.gov/nwis/inventory?agency_code=USGS&site_no=08080500
8080505,"DMF Brazos Rv nr Rule, TX",-99.9601361,33.18791667,https://waterdata.usgs.gov/nwis/inventory?agency_code=USGS&site_no=08080505
8080700,"Running Water Draw at Plainview, TX",-101.7026748,34.17896048,https://waterdata.usgs.gov/nwis/inventory?agency_code=USGS&site_no=08080700
8082000,"Salt Fk Brazos Rv nr Aspermont, TX",-100.2381622,33.3339801,https://waterdata.usgs.gov/nwis/inventory?agency_code=USGS&site_no=08082000
8082500,"Brazos Rv at Seymour, TX",-99.2675756,33.58092766,https://waterdata.usgs.gov/nwis/inventory?agency_code=USGS&site_no=08082500
8082700,"Millers Ck nr Munday, TX",-99.4650825,33.32926607,https://waterdata.usgs.gov/nwis/inventory?agency_code=USGS&site_no=08082700
8083100,"Clear Fk Brazos Rv nr Roby, TX",-100.3887183,32.78760777,https://waterdata.usgs.gov/nwis/inventory?agency_code=USGS&site_no=08083100
8083230,"Clear Fk Brazos Rv nr Noodle, TX",-100.0725999,32.67455998,https://waterdata.usgs.gov/nwis/inventory?agency_code=USGS&site_no=08083230
8083240,"Clear Fk Brazos Rv at Hwy 83 nr Hawley, TX",-99.8145556,32.5985,https://waterdata.usgs.gov/nwis/inventory?agency_code=USGS&site_no=08083240
8083280,"Elm Ck at FM 89 nr Buffalo Gap, TX",-99.8357222,32.27519444,https://waterdata.usgs.gov/nwis/inventory?agency_code=USGS&site_no=08083280
8083420,"Cat Claw Ck at Abilene, TX",-99.7492556,32.47540219,https://waterdata.usgs.gov/nwis/inventory?agency_code=USGS&site_no=08083420
8083430,"Elm Ck at Abilene, TX",-99.7410278,32.50730556,https://waterdata.usgs.gov/nwis/inventory?agency_code=USGS&site_no=08083430
8083480,"Cedar Ck at IH 20, Abilene, TX",-99.7145556,32.4866111,https://waterdata.usgs.gov/nwis/inventory?agency_code=USGS&site_no=08083480
8084000,"Clear Fk Brazos Rv at Nugent, TX",-99.6695326,32.6901186,https://waterdata.usgs.gov/nwis/inventory?agency_code=USGS&site_no=08084000
8084200,"Clear Fk Brazos Rv at Lueders, TX",-99.6120278,32.79275,https://waterdata.usgs.gov/nwis/inventory?agency_code=USGS&site_no=08084200
8084800,"California Ck nr Stamford, TX",-99.642588,32.93094435,https://waterdata.usgs.gov/nwis/inventory?agency_code=USGS&site_no=08084800
8085500,"Clear Fk Brazos Rv at Ft Griffin, TX",-99.2153889,32.93297778,https://waterdata.usgs.gov/nwis/inventory?agency_code=USGS&site_no=08085500
8086050,"Deep Ck at Moran, TX",-99.170074,32.55929085,https://waterdata.usgs.gov/nwis/inventory?agency_code=USGS&site_no=08086050
8086212,"Hubbard Ck bl Albany, TX",-99.1406299,32.73289717,https://waterdata.usgs.gov/nwis/inventory?agency_code=USGS&site_no=08086212
8086290,"Big Sandy Ck abv Breckenridge, TX",-99.0045146,32.64845613,https://waterdata.usgs.gov/nwis/inventory?agency_code=USGS&site_no=08086290
8086500,"Hubbard Ck nr Breckenridge, TX",-98.9481246,32.8370625,https://waterdata.usgs.gov/nwis/inventory?agency_code=USGS&site_no=08086500
8087300,"Clear Fk Brazos Rv at Eliasville, TX",-98.7667694,32.96068333,https://waterdata.usgs.gov/nwis/inventory?agency_code=USGS&site_no=08087300
8088000,"Brazos Rv nr South Bend, TX",-98.6439481,33.02428377,https://waterdata.usgs.gov/nwis/inventory?agency_code=USGS&site_no=08088000
8088610,"Brazos Rv nr Graford, TX",-98.411719,32.85817854,https://waterdata.usgs.gov/nwis/inventory?agency_code=USGS&site_no=08088610
8089000,"Brazos Rv nr Palo Pinto, TX",-98.3025492,32.8626236,https://waterdata.usgs.gov/nwis/inventory?agency_code=USGS&site_no=08089000
8089200,"Keechi Ck at SH 337 nr Graford, TX",-98.2032972,32.88253889,https://waterdata.usgs.gov/nwis/inventory?agency_code=USGS&site_no=08089200
8090550,"Palo Pinto Ck at Water Plant Rd nr Santo, TX",-98.1294028,32.6537472,https://waterdata.usgs.gov/nwis/inventory?agency_code=USGS&site_no=08090550
8090800,"Brazos Rv nr Dennis, TX",-97.9258703,32.61568907,https://waterdata.usgs.gov/nwis/inventory?agency_code=USGS&site_no=08090800
8090905,"Brazos Rv ds Lk Granbury nr Granbury, TX",-97.6522222,32.38638889,https://waterdata.usgs.gov/nwis/inventory?agency_code=USGS&site_no=08090905
8091000,"Brazos Rv nr Glen Rose, TX",-97.7025268,32.25903188,https://waterdata.usgs.gov/nwis/inventory?agency_code=USGS&site_no=08091000
8091500,"Paluxy Rv at Glen Rose, TX",-97.7772512,32.23153166,https://waterdata.usgs.gov/nwis/inventory?agency_code=USGS&site_no=08091500
8092000,"Nolan Rv at Blum, TX",-97.402794,32.15070534,https://waterdata.usgs.gov/nwis/inventory?agency_code=USGS&site_no=08092000
8093100,"Brazos Rv nr Aquilla, TX",-97.2977882,31.8123822,https://waterdata.usgs.gov/nwis/inventory?agency_code=USGS&site_no=08093100
8093360,"Aquilla Ck abv Aquilla, TX",-97.2030634,31.8954362,https://waterdata.usgs.gov/nwis/inventory?agency_code=USGS&site_no=08093360
8094800,"N Bosque Rv at Hico, TX",-98.032812,31.9765366,https://waterdata.usgs.gov/nwis/inventory?agency_code=USGS&site_no=08094800
8095000,"N Bosque Rv nr Clifton, TX",-97.5680748,31.785991,https://waterdata.usgs.gov/nwis/inventory?agency_code=USGS&site_no=08095000
8095200,"N Bosque Rv at Valley Mills, TX",-97.4694602,31.66960575,https://waterdata.usgs.gov/nwis/inventory?agency_code=USGS&site_no=08095200
8095300,"Middle Bosque Rv nr McGregor, TX",-97.365845,31.50933179,https://waterdata.usgs.gov/nwis/inventory?agency_code=USGS&site_no=08095300
8095400,"Hog Ck nr Crawford, TX",-97.3564004,31.5557199,https://waterdata.usgs.gov/nwis/inventory?agency_code=USGS&site_no=08095400
8096500,"Brazos Rv at Waco, TX",-97.0733325,31.53600056,https://waterdata.usgs.gov/nwis/inventory?agency_code=USGS&site_no=08096500
8098290,"Brazos Rv nr Highbank, TX",-96.8249826,31.13407098,https://waterdata.usgs.gov/nwis/inventory?agency_code=USGS&site_no=08098290
8098300,"Little Pond Ck nr Burlington, TX",-96.9883214,31.02657314,https://waterdata.usgs.gov/nwis/inventory?agency_code=USGS&site_no=08098300
8098450,"Brazos Rv at FM 485 near Hearne, TX",-96.6951667,30.86508333,https://waterdata.usgs.gov/nwis/inventory?agency_code=USGS&site_no=08098450
8099100,"Leon Rv nr De Leon, TX",-98.5331058,32.1737502,https://waterdata.usgs.gov/nwis/inventory?agency_code=USGS&site_no=08099100
8099300,"Sabana Rv nr De Leon, TX",-98.6056067,32.11402957,https://waterdata.usgs.gov/nwis/inventory?agency_code=USGS&site_no=08099300
8099382,"Copperas Ck at FM 2247 nr Comanche, TX",-98.6460556,32.04902778,https://waterdata.usgs.gov/nwis/inventory?agency_code=USGS&site_no=08099382
8099500,"Leon Rv nr Hasse, TX",-98.4592116,31.9579235,https://waterdata.usgs.gov/nwis/inventory?agency_code=USGS&site_no=08099500
8100000,"Leon Rv nr Hamilton, TX",-98.1214238,31.78876325,https://waterdata.usgs.gov/nwis/inventory?agency_code=USGS&site_no=08100000
8100500,"Leon Rv at Gatesville, TX",-97.7583333,31.4347222,https://waterdata.usgs.gov/nwis/inventory?agency_code=USGS&site_no=08100500
8100630,"Henson Ck at W Range Rd nr Gatesville, TX",-97.7576639,31.323225,https://waterdata.usgs.gov/nwis/inventory?agency_code=USGS&site_no=08100630
8101000,"Cowhouse Ck at Pidcoke, TX",-97.8850244,31.2848902,https://waterdata.usgs.gov/nwis/inventory?agency_code=USGS&site_no=08101000
8101200,"Cowhouse Ck at Old Georgetown Rd nr Ft Hood, TX",-97.8378472,31.24878889,https://waterdata.usgs.gov/nwis/inventory?agency_code=USGS&site_no=08101200
8101300,"Cowhouse Ck at W Range Rd nr Fort Hood, TX",-97.7941944,31.21499444,https://waterdata.usgs.gov/nwis/inventory?agency_code=USGS&site_no=08101300
8101310,"House Ck at Old Georgetown Rd nr Ft Hood, TX",-97.8781944,31.16493889,https://waterdata.usgs.gov/nwis/inventory?agency_code=USGS&site_no=08101310
8101330,"Clear Ck at Ft Hood, TX",-97.8181389,31.12927778,https://waterdata.usgs.gov/nwis/inventory?agency_code=USGS&site_no=08101330
8101340,"House Ck at W Range Rd nr Ft Hood, TX",-97.8087167,31.18553056,https://waterdata.usgs.gov/nwis/inventory?agency_code=USGS&site_no=08101340
8102500,"Leon Rv nr Belton, TX",-97.4413967,31.07017947,https://waterdata.usgs.gov/nwis/inventory?agency_code=USGS&site_no=08102500
8102595,"Nolan Ck at S Penelope, Belton, TX",-97.4625278,31.0539722,https://waterdata.usgs.gov/nwis/inventory?agency_code=USGS&site_no=08102595
8103800,"Lampasas Rv nr Kempner, TX",-98.0166919,31.0793403,https://waterdata.usgs.gov/nwis/inventory?agency_code=USGS&site_no=08103800
8103900,"S Fk Rocky Ck nr Briggs, TX",-98.0369676,30.91156805,https://waterdata.usgs.gov/nwis/inventory?agency_code=USGS&site_no=08103900
8103940,"Lampasas Rv at Ding Dong, TX",-97.7785278,30.97252778,https://waterdata.usgs.gov/nwis/inventory?agency_code=USGS&site_no=08103940
8104055,"Chalk Ridge Falls Spgs nr Belton, TX",-97.5262778,31.018,https://waterdata.usgs.gov/nwis/inventory?agency_code=USGS&site_no=08104055
8104100,"Lampasas Rv nr Belton, TX",-97.4925088,31.0018485,https://waterdata.usgs.gov/nwis/inventory?agency_code=USGS&site_no=08104100
8104300,"Salado Ck at Salado, TX",-97.534075,30.9443472,https://waterdata.usgs.gov/nwis/inventory?agency_code=USGS&site_no=08104300
8104500,"Little Rv nr Little River, TX",-97.346113,30.9665723,https://waterdata.usgs.gov/nwis/inventory?agency_code=USGS&site_no=08104500
810464660,"N Fk San Gabriel Rv at Reagan Blvd nr Leander, TX",-97.8492222,30.69775,https://waterdata.usgs.gov/nwis/inventory?agency_code=USGS&site_no=0810464660
8104700,"N Fk San Gabriel Rv nr Georgetown, TX",-97.7113993,30.6618592,https://waterdata.usgs.gov/nwis/inventory?agency_code=USGS&site_no=08104700
8104900,"S Fk San Gabriel Rv at Georgetown, TX",-97.6911204,30.6257499,https://waterdata.usgs.gov/nwis/inventory?agency_code=USGS&site_no=08104900
8105095,"Berry Ck at Airport Rd nr Georgetown, TX",-97.6663985,30.70324685,https://waterdata.usgs.gov/nwis/inventory?agency_code=USGS&site_no=08105095
8105505,"Willis Ck nr Granger, TX",-97.4341667,30.70216667,https://waterdata.usgs.gov/nwis/inventory?agency_code=USGS&site_no=08105505
8105700,"San Gabriel Rv at Laneport, TX",-97.2788849,30.69436146,https://waterdata.usgs.gov/nwis/inventory?agency_code=USGS&site_no=08105700
8105872,"Brushy Ck at Cedar Park, TX",-97.7499917,30.52518056,https://waterdata.usgs.gov/nwis/inventory?agency_code=USGS&site_no=08105872
8105883,"Brushy Ck at IH 35, Round Rock, TX",-97.6864361,30.51290556,https://waterdata.usgs.gov/nwis/inventory?agency_code=USGS&site_no=08105883
8105886,"Lake Ck at Lake Ck Pkwy nr Austin, TX",-97.7878889,30.46555556,https://waterdata.usgs.gov/nwis/inventory?agency_code=USGS&site_no=08105886
810588650,"Lake Ck at O'Connor Dr nr Round Rock, TX",-97.7200389,30.4841361,https://waterdata.usgs.gov/nwis/inventory?agency_code=USGS&site_no=0810588650
8105888,"Brushy Ck at Kenney Fort Blvd at Round Rock, TX",-97.6366722,30.51239444,https://waterdata.usgs.gov/nwis/inventory?agency_code=USGS&site_no=08105888
8105897,"Brushy Ck at FM 973 nr Coupland, TX",-97.4634722,30.46938889,https://waterdata.usgs.gov/nwis/inventory?agency_code=USGS&site_no=08105897
8106050,"Brushy Ck at FM 619 nr Taylor, TX",-97.3384472,30.51958333,https://waterdata.usgs.gov/nwis/inventory?agency_code=USGS&site_no=08106050
8106350,"Little Rv nr Rockdale, TX",-97.0138754,30.76074836,https://waterdata.usgs.gov/nwis/inventory?agency_code=USGS&site_no=08106350
8106500,"Little Rv nr Cameron, TX",-96.9466512,30.83519047,https://waterdata.usgs.gov/nwis/inventory?agency_code=USGS&site_no=08106500
8107950,"N Elm Ck at Rosebud Rd nr Meeks, TX",-97.1100833,31.01306944,https://waterdata.usgs.gov/nwis/inventory?agency_code=USGS&site_no=08107950
8108250,"Big Elm Ck at SH 77 nr Cameron, TX",-96.9791531,30.90324377,https://waterdata.usgs.gov/nwis/inventory?agency_code=USGS&site_no=08108250
8108700,"Brazos Rv at SH 21 nr Bryan, TX",-96.544135,30.6268665,https://waterdata.usgs.gov/nwis/inventory?agency_code=USGS&site_no=08108700
8108780,"Little Brazos Rv at FM 485 nr Hearne, TX",-96.6402778,30.87944444,https://waterdata.usgs.gov/nwis/inventory?agency_code=USGS&site_no=08108780
8109700,"Middle Yegua Ck nr Dime Box, TX",-96.9047037,30.33937764,https://waterdata.usgs.gov/nwis/inventory?agency_code=USGS&site_no=08109700
8109800,"E Yegua Ck nr Dime Box, TX",-96.8174791,30.40743105,https://waterdata.usgs.gov/nwis/inventory?agency_code=USGS&site_no=08109800
8110000,"Yegua Ck nr Somerville, TX",-96.5074683,30.3218773,https://waterdata.usgs.gov/nwis/inventory?agency_code=USGS&site_no=08110000
8110100,"Davidson Ck nr Lyons, TX",-96.5402466,30.41965196,https://waterdata.usgs.gov/nwis/inventory?agency_code=USGS&site_no=08110100
8110325,"Navasota Rv abv Groesbeck, TX",-96.520814,31.57433657,https://waterdata.usgs.gov/nwis/inventory?agency_code=USGS&site_no=08110325
8110430,"Big Ck nr Freestone, TX",-96.3246953,31.5068396,https://waterdata.usgs.gov/nwis/inventory?agency_code=USGS&site_no=08110430
8110500,"Navasota Rv nr Easterly, TX",-96.297743,31.17018205,https://waterdata.usgs.gov/nwis/inventory?agency_code=USGS&site_no=08110500
8110800,"Navasota Rv at Old San Antonio Rd nr Bryan, TX",-96.2416274,30.9737987,https://waterdata.usgs.gov/nwis/inventory?agency_code=USGS&site_no=08110800
8111052,"Bee Ck Main at College Station, TX",-96.2986361,30.60555556,https://waterdata.usgs.gov/nwis/inventory?agency_code=USGS&site_no=08111052
8111054,"Bee Ck Trib A at College Station, TX",-96.2972472,30.59418056,https://waterdata.usgs.gov/nwis/inventory?agency_code=USGS&site_no=08111054
8111500,"Brazos Rv nr Hempstead, TX",-96.1877387,30.12910626,https://waterdata.usgs.gov/nwis/inventory?agency_code=USGS&site_no=08111500
8111700,"Mill Ck nr Bellville, TX",-96.2052402,29.88106145,https://waterdata.usgs.gov/nwis/inventory?agency_code=USGS&site_no=08111700
8111850,"Brazos Rv at San Felipe, TX",-96.0955556,29.80833333,https://waterdata.usgs.gov/nwis/inventory?agency_code=USGS&site_no=08111850
8114000,"Brazos Rv at Richmond, TX",-95.7577275,29.5824589,https://waterdata.usgs.gov/nwis/inventory?agency_code=USGS&site_no=08114000
8115000,"Big Ck nr Needville, TX",-95.8030067,29.47190769,https://waterdata.usgs.gov/nwis/inventory?agency_code=USGS&site_no=08115000
8116400,"Dry Ck nr Rosenberg, TX",-95.7468942,29.51190593,https://waterdata.usgs.gov/nwis/inventory?agency_code=USGS&site_no=08116400
8116650,"Brazos Rv nr Rosharon, TX",-95.5824448,29.3496858,https://waterdata.usgs.gov/nwis/inventory?agency_code=USGS&site_no=08116650
8116850,"Brazos Rv nr West Columbia, TX",-95.6060571,29.1444131,https://waterdata.usgs.gov/nwis/inventory?agency_code=USGS&site_no=08116850
8117370,"San Bernard Rv nr Chesterville, TX",-96.2436667,29.66075,https://waterdata.usgs.gov/nwis/inventory?agency_code=USGS&site_no=08117370
8117500,"San Bernard Rv nr Boling, TX",-95.8938421,29.31357967,https://waterdata.usgs.gov/nwis/inventory?agency_code=USGS&site_no=08117500
8117705,"San Bernard Rv nr Sweeny, TX",-95.6766667,29.11194444,https://waterdata.usgs.gov/nwis/inventory?agency_code=USGS&site_no=08117705
8117995,"Colorado Rv nr Gail, TX",-101.2854044,32.6287208,https://waterdata.usgs.gov/nwis/inventory?agency_code=USGS&site_no=08117995
8119500,"Colorado Rv at Hwy 350 nr Ira, TX",-101.0552222,32.53915278,https://waterdata.usgs.gov/nwis/inventory?agency_code=USGS&site_no=08119500
8120500,"Deep Ck nr Dunn, TX",-100.9078941,32.57372368,https://waterdata.usgs.gov/nwis/inventory?agency_code=USGS&site_no=08120500
8121000,"Colorado Rv at Colorado City, TX",-100.8787246,32.39261865,https://waterdata.usgs.gov/nwis/inventory?agency_code=USGS&site_no=08121000
8123620,"Sulphur Spgs Draw nr Wellman, TX",-102.4153056,33.05933333,https://waterdata.usgs.gov/nwis/inventory?agency_code=USGS&site_no=08123620
8123800,"Beals Ck nr Westbrook, TX",-101.0140029,32.1992913,https://waterdata.usgs.gov/nwis/inventory?agency_code=USGS&site_no=08123800
8123850,"Colorado Rv abv Silver, TX",-100.762052,32.05374399,https://waterdata.usgs.gov/nwis/inventory?agency_code=USGS&site_no=08123850
8124000,"Colorado Rv at Robert Lee, TX",-100.4806543,31.88542168,https://waterdata.usgs.gov/nwis/inventory?agency_code=USGS&site_no=08124000
8126380,"Colorado Rv nr Ballinger, TX",-100.0264755,31.71542973,https://waterdata.usgs.gov/nwis/inventory?agency_code=USGS&site_no=08126380
8127000,"Elm Ck at Ballinger, TX",-99.9478636,31.74931697,https://waterdata.usgs.gov/nwis/inventory?agency_code=USGS&site_no=08127000
8128000,"S Concho Rv at Christoval, TX",-100.5020388,31.18711186,https://waterdata.usgs.gov/nwis/inventory?agency_code=USGS&site_no=08128000
8128030,"S Concho Rv abv Twin Buttes Res nr San Angelo, TX",-100.5042194,31.2727611,https://waterdata.usgs.gov/nwis/inventory?agency_code=USGS&site_no=08128030
8128095,"Tepee Draw Trib nr Barnhart, TX",-101.1760556,31.2108,https://waterdata.usgs.gov/nwis/inventory?agency_code=USGS&site_no=08128095
8128400,"Middle Concho Rv abv Tankersley, TX",-100.7112125,31.42738264,https://waterdata.usgs.gov/nwis/inventory?agency_code=USGS&site_no=08128400
8129300,"Spring Ck abv Tankersley, TX",-100.6403767,31.33016396,https://waterdata.usgs.gov/nwis/inventory?agency_code=USGS&site_no=08129300
8130500,"Dove Ck at Knickerbocker, TX",-100.6309318,31.27405465,https://waterdata.usgs.gov/nwis/inventory?agency_code=USGS&site_no=08130500
8130700,"Spring Ck abv Twin Buttes Res nr San Angelo, TX",-100.600931,31.3309973,https://waterdata.usgs.gov/nwis/inventory?agency_code=USGS&site_no=08130700
8131400,"Pecan Ck nr San Angelo, TX",-100.4459254,31.30905356,https://waterdata.usgs.gov/nwis/inventory?agency_code=USGS&site_no=08131400
8132450,"Red Arroyo at S. Chadbourne St. nr San Angelo, TX",-100.4343333,31.43577778,https://waterdata.usgs.gov/nwis/inventory?agency_code=USGS&site_no=08132450
8133250,"N Concho Rv abv Sterling City, TX",-101.105113,31.8973574,https://waterdata.usgs.gov/nwis/inventory?agency_code=USGS&site_no=08133250
8133500,"N Concho Rv at Sterling City, TX",-100.9937215,31.83013918,https://waterdata.usgs.gov/nwis/inventory?agency_code=USGS&site_no=08133500
8134000,"N Concho Rv nr Carlsbad, TX",-100.6370449,31.5926549,https://waterdata.usgs.gov/nwis/inventory?agency_code=USGS&site_no=08134000
8134250,"N Concho Rv nr Grape Creek, TX",-100.5550977,31.54265769,https://waterdata.usgs.gov/nwis/inventory?agency_code=USGS&site_no=08134250
8136000,"Concho Rv at San Angelo, TX",-100.4106474,31.454606,https://waterdata.usgs.gov/nwis/inventory?agency_code=USGS&site_no=08136000
8136500,"Concho Rv at Paint Rock, TX",-99.9195226,31.5159908,https://waterdata.usgs.gov/nwis/inventory?agency_code=USGS&site_no=08136500
8136700,"Colorado Rv nr Stacy, TX",-99.5739532,31.49376898,https://waterdata.usgs.gov/nwis/inventory?agency_code=USGS&site_no=08136700
8140700,"Pecan Bayou nr Cross Cut, TX",-99.1303376,31.9726444,https://waterdata.usgs.gov/nwis/inventory?agency_code=USGS&site_no=08140700
8140860,"Jim Ned Ck at CR 140 nr Coleman, TX",-99.2778417,31.8792472,https://waterdata.usgs.gov/nwis/inventory?agency_code=USGS&site_no=08140860
8142000,"Hords Ck nr Coleman, TX",-99.4246944,31.84666667,https://waterdata.usgs.gov/nwis/inventory?agency_code=USGS&site_no=08142000
8143500,"Pecan Bayou at Brownwood, TX",-98.9754889,31.7364,https://waterdata.usgs.gov/nwis/inventory?agency_code=USGS&site_no=08143500
8143600,"Pecan Bayou nr Mullin, TX",-98.740603,31.5173861,https://waterdata.usgs.gov/nwis/inventory?agency_code=USGS&site_no=08143600
8143990,"Noyes Canal at Diversion pt nr. Menard, TX",-99.8525,30.92175,https://waterdata.usgs.gov/nwis/inventory?agency_code=USGS&site_no=08143990
8144500,"San Saba Rv at Menard, TX",-99.7856254,30.91906245,https://waterdata.usgs.gov/nwis/inventory?agency_code=USGS&site_no=08144500
8145000,"Brady Ck at Brady, TX",-99.3350553,31.13822366,https://waterdata.usgs.gov/nwis/inventory?agency_code=USGS&site_no=08145000
8146000,"San Saba Rv at San Saba, TX",-98.7194871,31.21322316,https://waterdata.usgs.gov/nwis/inventory?agency_code=USGS&site_no=08146000
8147000,"Colorado Rv nr San Saba, TX",-98.564484,31.21794515,https://waterdata.usgs.gov/nwis/inventory?agency_code=USGS&site_no=08147000
8148500,"N Llano Rv nr Junction, TX",-99.806179,30.5174101,https://waterdata.usgs.gov/nwis/inventory?agency_code=USGS&site_no=08148500
8149900,"S Llano Rv at Flat Rock Ln at Junction, TX",-99.7780389,30.47901389,https://waterdata.usgs.gov/nwis/inventory?agency_code=USGS&site_no=08149900
8150000,"Llano Rv nr Junction, TX",-99.7345097,30.50435487,https://waterdata.usgs.gov/nwis/inventory?agency_code=USGS&site_no=08150000
8150700,"Llano Rv nr Mason, TX",-99.1092185,30.66073685,https://waterdata.usgs.gov/nwis/inventory?agency_code=USGS&site_no=08150700
8150800,"Beaver Ck nr Mason, TX",-99.0958848,30.64351548,https://waterdata.usgs.gov/nwis/inventory?agency_code=USGS&site_no=08150800
8151500,"Llano Rv at Llano, TX",-98.6697599,30.7512899,https://waterdata.usgs.gov/nwis/inventory?agency_code=USGS&site_no=08151500
8151850,"Turkey Feather Spg nr Kingsland,TX",-98.3846111,30.6503611,https://waterdata.usgs.gov/nwis/inventory?agency_code=USGS&site_no=08151850
8152000,"Sandy Ck nr Kingsland, TX",-98.4722511,30.557689,https://waterdata.usgs.gov/nwis/inventory?agency_code=USGS&site_no=08152000
8152710,"Felps Spgs nr Burnet, TX",-98.2280556,30.71944444,https://waterdata.usgs.gov/nwis/inventory?agency_code=USGS&site_no=08152710
8152900,"Pedernales Rv nr Fredericksburg, TX",-98.8697609,30.22048147,https://waterdata.usgs.gov/nwis/inventory?agency_code=USGS&site_no=08152900
8153500,"Pedernales Rv nr Johnson City, TX",-98.3994674,30.29186695,https://waterdata.usgs.gov/nwis/inventory?agency_code=USGS&site_no=08153500
8154700,"Bull Ck at Loop 360 nr Austin, TX",-97.7847301,30.37214825,https://waterdata.usgs.gov/nwis/inventory?agency_code=USGS&site_no=08154700
8155200,"Barton Ck at SH 71 nr Oak Hill, TX",-97.925565,30.29631587,https://waterdata.usgs.gov/nwis/inventory?agency_code=USGS&site_no=08155200
8155240,"Barton Ck at Lost Ck Blvd nr Austin, TX",-97.8447296,30.2740957,https://waterdata.usgs.gov/nwis/inventory?agency_code=USGS&site_no=08155240
8155300,"Barton Ck at Loop 360, Austin, TX",-97.8022283,30.24465306,https://waterdata.usgs.gov/nwis/inventory?agency_code=USGS&site_no=08155300
8155400,"Barton Ck abv Barton Spgs at Austin, TX",-97.772228,30.26354168,https://waterdata.usgs.gov/nwis/inventory?agency_code=USGS&site_no=08155400
8155500,"Barton Spgs at Austin, TX",-97.7713947,30.26354169,https://waterdata.usgs.gov/nwis/inventory?agency_code=USGS&site_no=08155500
8155541,"W Bouldin Ck at Oltorf Rd, Austin, TX",-97.7691667,30.24666667,https://waterdata.usgs.gov/nwis/inventory?agency_code=USGS&site_no=08155541
8156675,"Shoal Ck at Silverway Dr, Austin, TX",-97.7388889,30.35416667,https://waterdata.usgs.gov/nwis/inventory?agency_code=USGS&site_no=08156675
8156800,"Shoal Ck at W 12th St, Austin, TX",-97.7502834,30.27659704,https://waterdata.usgs.gov/nwis/inventory?agency_code=USGS&site_no=08156800
8156910,"Waller Ck at Koenig Lane, Austin, TX",-97.7227778,30.32277778,https://waterdata.usgs.gov/nwis/inventory?agency_code=USGS&site_no=08156910
8157540,"Waller Ck at Red River St, Austin, TX",-97.7355583,30.27162778,https://waterdata.usgs.gov/nwis/inventory?agency_code=USGS&site_no=08157540
8157560,"Waller Ck at E 1st St, Austin, TX",-97.7397,30.26194167,https://waterdata.usgs.gov/nwis/inventory?agency_code=USGS&site_no=08157560
8158000,"Colorado Rv at Austin, TX",-97.6800556,30.24613889,https://waterdata.usgs.gov/nwis/inventory?agency_code=USGS&site_no=08158000
8158030,"Boggy Ck at Manor Rd, Austin, TX",-97.7086111,30.2861111,https://waterdata.usgs.gov/nwis/inventory?agency_code=USGS&site_no=08158030
8158035,"Boggy Ck at Webberville Rd, Austin, TX",-97.7125,30.26305556,https://waterdata.usgs.gov/nwis/inventory?agency_code=USGS&site_no=08158035
8158045,"Ft Br Boggy Ck at Manor Rd, Austin, TX",-97.6855556,30.30055556,https://waterdata.usgs.gov/nwis/inventory?agency_code=USGS&site_no=08158045
8158200,"Walnut Ck at Dessau Rd, Austin, TX",-97.6605601,30.375205,https://waterdata.usgs.gov/nwis/inventory?agency_code=USGS&site_no=08158200
8158380,"Little Walnut Ck at Georgian Dr, Austin, TX",-97.6980609,30.35437215,https://waterdata.usgs.gov/nwis/inventory?agency_code=USGS&site_no=08158380
8158600,"Walnut Ck at Webberville Rd, Austin, TX",-97.655003,30.2832642,https://waterdata.usgs.gov/nwis/inventory?agency_code=USGS&site_no=08158600
8158700,"Onion Ck nr Driftwood, TX",-98.0077859,30.08298924,https://waterdata.usgs.gov/nwis/inventory?agency_code=USGS&site_no=08158700
8158810,"Bear Ck bl FM 1826 nr Driftwood, TX",-97.9400076,30.15548749,https://waterdata.usgs.gov/nwis/inventory?agency_code=USGS&site_no=08158810
8158813,"Bear Ck at Spillar Ranch Rd nr Manchaca, TX",-97.9070194,30.1636611,https://waterdata.usgs.gov/nwis/inventory?agency_code=USGS&site_no=08158813
8158827,"Onion Ck at Twin Creeks Rd nr Manchaca, TX",-97.8211161,30.12632345,https://waterdata.usgs.gov/nwis/inventory?agency_code=USGS&site_no=08158827
8158840,"Slaughter Ck at FM 1826 nr Austin, TX",-97.9033409,30.2090972,https://waterdata.usgs.gov/nwis/inventory?agency_code=USGS&site_no=08158840
8158860,"Slaughter Ck at FM 2304 nr Austin, TX",-97.8322279,30.1621554,https://waterdata.usgs.gov/nwis/inventory?agency_code=USGS&site_no=08158860
8158920,"Williamson Ck at Oak Hill, TX",-97.8602848,30.23520806,https://waterdata.usgs.gov/nwis/inventory?agency_code=USGS&site_no=08158920
8158927,"Kincheon Br at William Cannon Blvd, Austin, TX",-97.8288611,30.2124722,https://waterdata.usgs.gov/nwis/inventory?agency_code=USGS&site_no=08158927
8158930,"Williamson Ck at Manchaca Rd, Austin, TX",-97.7936168,30.22132064,https://waterdata.usgs.gov/nwis/inventory?agency_code=USGS&site_no=08158930
8158970,"Williamson Ck at Jimmy Clay Rd, Austin, TX",-97.732504,30.189378,https://waterdata.usgs.gov/nwis/inventory?agency_code=USGS&site_no=08158970
8159000,"Onion Ck at US Hwy 183, Austin, TX",-97.6886138,30.17798987,https://waterdata.usgs.gov/nwis/inventory?agency_code=USGS&site_no=08159000
8159200,"Colorado Rv at Bastrop, TX",-97.3194368,30.10466154,https://waterdata.usgs.gov/nwis/inventory?agency_code=USGS&site_no=08159200
8159500,"Colorado Rv at Smithville, TX",-97.1619321,30.01272074,https://waterdata.usgs.gov/nwis/inventory?agency_code=USGS&site_no=08159500
8160400,"Colorado Rv abv La Grange, TX",-96.9038699,29.9124474,https://waterdata.usgs.gov/nwis/inventory?agency_code=USGS&site_no=08160400
8160800,"Redgate Ck nr Columbus, TX",-96.5321933,29.79911967,https://waterdata.usgs.gov/nwis/inventory?agency_code=USGS&site_no=08160800
8161000,"Colorado Rv at Columbus, TX",-96.5369155,29.7063454,https://waterdata.usgs.gov/nwis/inventory?agency_code=USGS&site_no=08161000
8162000,"Colorado Rv at Wharton, TX",-96.1038482,29.30913668,https://waterdata.usgs.gov/nwis/inventory?agency_code=USGS&site_no=08162000
8162500,"Colorado Rv nr Bay City, TX",-96.0124588,28.9741462,https://waterdata.usgs.gov/nwis/inventory?agency_code=USGS&site_no=08162500
8162501,"Colorado Rv nr Wadsworth, TX",-95.9975,28.77416667,https://waterdata.usgs.gov/nwis/inventory?agency_code=USGS&site_no=08162501
8162600,"Tres Palacios Rv nr Midfield, TX",-96.1710747,28.92803769,https://waterdata.usgs.gov/nwis/inventory?agency_code=USGS&site_no=08162600
8163500,"Lavaca Rv at Hallettsville, TX",-96.9449819,29.4432973,https://waterdata.usgs.gov/nwis/inventory?agency_code=USGS&site_no=08163500
8164000,"Lavaca Rv nr Edna, TX",-96.6863668,28.95998449,https://waterdata.usgs.gov/nwis/inventory?agency_code=USGS&site_no=08164000
8164300,"Navidad Rv nr Hallettsville, TX",-96.812756,29.466908,https://waterdata.usgs.gov/nwis/inventory?agency_code=USGS&site_no=08164300
8164350,"Navidad Rv nr Speaks, TX",-96.7091425,29.321914,https://waterdata.usgs.gov/nwis/inventory?agency_code=USGS&site_no=08164350
8164370,"Navidad Rv at Morales, TX",-96.7444227,29.1355328,https://waterdata.usgs.gov/nwis/inventory?agency_code=USGS&site_no=08164370
8164390,"Navidad Rv at Strane Pk nr Edna, TX",-96.6741434,29.06553568,https://waterdata.usgs.gov/nwis/inventory?agency_code=USGS&site_no=08164390
8164450,"Sandy Ck nr Ganado, TX",-96.5463608,29.1602539,https://waterdata.usgs.gov/nwis/inventory?agency_code=USGS&site_no=08164450
8164503,"W Mustang Ck nr Ganado, TX",-96.4680278,29.07185833,https://waterdata.usgs.gov/nwis/inventory?agency_code=USGS&site_no=08164503
8164504,"E Mustang Ck nr Louise, TX",-96.4171913,29.07081227,https://waterdata.usgs.gov/nwis/inventory?agency_code=USGS&site_no=08164504
8164600,"Garcitas Ck nr Inez, TX",-96.8191486,28.8913759,https://waterdata.usgs.gov/nwis/inventory?agency_code=USGS&site_no=08164600
8164800,"Placedo Ck nr Placedo, TX",-96.7688702,28.72527137,https://waterdata.usgs.gov/nwis/inventory?agency_code=USGS&site_no=08164800
8165300,"N Fk Guadalupe Rv nr Hunt, TX",-99.3869916,30.06409747,https://waterdata.usgs.gov/nwis/inventory?agency_code=USGS&site_no=08165300
8165500,"Guadalupe Rv at Hunt, TX",-99.3217122,30.06993074,https://waterdata.usgs.gov/nwis/inventory?agency_code=USGS&site_no=08165500
8166000,"Johnson Ck nr Ingram, TX",-99.2831006,30.10020707,https://waterdata.usgs.gov/nwis/inventory?agency_code=USGS&site_no=08166000
8166140,"Guadalupe Rv abv Bear Ck at Kerrville, TX",-99.1953203,30.06965378,https://waterdata.usgs.gov/nwis/inventory?agency_code=USGS&site_no=08166140
8166200,"Guadalupe Rv at Kerrville, TX",-99.163375,30.053266,https://waterdata.usgs.gov/nwis/inventory?agency_code=USGS&site_no=08166200
8166250,"Guadalupe Rv nr Center Point, TX",-99.11,29.98777778,https://waterdata.usgs.gov/nwis/inventory?agency_code=USGS&site_no=08166250
8167000,"Guadalupe Rv at Comfort, TX",-98.8971667,29.96523889,https://waterdata.usgs.gov/nwis/inventory?agency_code=USGS&site_no=08167000
8167200,"Guadalupe Rv at FM 474 nr Bergheim, TX",-98.6698333,29.89358333,https://waterdata.usgs.gov/nwis/inventory?agency_code=USGS&site_no=08167200
8167500,"Guadalupe Rv nr Spring Branch, TX",-98.3836275,29.8604957,https://waterdata.usgs.gov/nwis/inventory?agency_code=USGS&site_no=08167500
8167800,"Guadalupe Rv at Sattler, TX",-98.1800106,29.85910758,https://waterdata.usgs.gov/nwis/inventory?agency_code=USGS&site_no=08167800
8167870,"Bear Ck at FM 2722 nr Sattler, TX",-98.2302806,29.8085,https://waterdata.usgs.gov/nwis/inventory?agency_code=USGS&site_no=08167870
8167900,"Guadalupe Rv at Third Crossing nr Sattler, TX",-98.1630889,29.80368889,https://waterdata.usgs.gov/nwis/inventory?agency_code=USGS&site_no=08167900
8168000,"Hueco Spgs nr New Braunfels, TX",-98.140009,29.7593893,https://waterdata.usgs.gov/nwis/inventory?agency_code=USGS&site_no=08168000
8168500,"Guadalupe Rv abv Comal Rv at New Braunfels, TX",-98.1100083,29.7149465,https://waterdata.usgs.gov/nwis/inventory?agency_code=USGS&site_no=08168500
8168770,"WFk Dry Comal Ck at Schuetz Dam, New Braunfels, TX",-98.2510889,29.67589444,https://waterdata.usgs.gov/nwis/inventory?agency_code=USGS&site_no=08168770
8168797,"Dry Comal Ck at Loop 337 nr New Braunfels, TX",-98.1548333,29.688,https://waterdata.usgs.gov/nwis/inventory?agency_code=USGS&site_no=08168797
8168913,"Comal Rv (oc) nr Landa Lk, New Braunfels, TX",-98.1316611,29.71007778,https://waterdata.usgs.gov/nwis/inventory?agency_code=USGS&site_no=08168913
8168932,"Comal Rv (nc) nr Landa Lk, New Braunfels, TX",-98.1334417,29.7089611,https://waterdata.usgs.gov/nwis/inventory?agency_code=USGS&site_no=08168932
8169000,"Comal Rv at New Braunfels, TX",-98.1222083,29.70640833,https://waterdata.usgs.gov/nwis/inventory?agency_code=USGS&site_no=08169000
8169500,"Guadalupe Rv at New Braunfels, TX",-98.1066748,29.69800265,https://waterdata.usgs.gov/nwis/inventory?agency_code=USGS&site_no=08169500
8169740,"Guadalupe Rv at Hwy 123-BR at Seguin, TX",-97.9693806,29.55140833,https://waterdata.usgs.gov/nwis/inventory?agency_code=USGS&site_no=08169740
8169780,"Geronimo Ck nr Seguin, TX",-97.9347917,29.5906222,https://waterdata.usgs.gov/nwis/inventory?agency_code=USGS&site_no=08169780
8169792,"Guadalupe Rv at FM 1117 nr Seguin, TX",-97.8809444,29.53616667,https://waterdata.usgs.gov/nwis/inventory?agency_code=USGS&site_no=08169792
8169845,"Guadalupe Rv at CR 143 nr Gonzales, TX",-97.5875056,29.4876,https://waterdata.usgs.gov/nwis/inventory?agency_code=USGS&site_no=08169845
8170500,"San Marcos Rv at San Marcos, TX",-97.9341718,29.88910804,https://waterdata.usgs.gov/nwis/inventory?agency_code=USGS&site_no=08170500
8170800,"Blanco Rv at Crabapple Rd nr Blanco, TX",-98.5106667,30.10258333,https://waterdata.usgs.gov/nwis/inventory?agency_code=USGS&site_no=08170800
8170890,"Little Blanco Rv at FM 32 nr Fischer, TX",-98.3305556,30.02080556,https://waterdata.usgs.gov/nwis/inventory?agency_code=USGS&site_no=08170890
8170905,"Blanco Rv at Valley View Rd nr Fischer, TX",-98.2228972,30.0368,https://waterdata.usgs.gov/nwis/inventory?agency_code=USGS&site_no=08170905
8170950,"Blanco Rv at Fischer Store Rd nr Fischer, TX",-98.2003611,30.00058333,https://waterdata.usgs.gov/nwis/inventory?agency_code=USGS&site_no=08170950
8170990,"Jacobs Well Spg nr Wimberley, TX",-98.1261111,30.03444444,https://waterdata.usgs.gov/nwis/inventory?agency_code=USGS&site_no=08170990
8171000,"Blanco Rv at Wimberley, TX",-98.088898,29.9943808,https://waterdata.usgs.gov/nwis/inventory?agency_code=USGS&site_no=08171000
8171290,"Blanco Rv at Halifax Rch nr Kyle, TX",-97.9525,30.00555556,https://waterdata.usgs.gov/nwis/inventory?agency_code=USGS&site_no=08171290
8171300,"Blanco Rv nr Kyle, TX",-97.9100051,29.97938297,https://waterdata.usgs.gov/nwis/inventory?agency_code=USGS&site_no=08171300
8171350,"Blanco Rv at San Marcos, TX",-97.9107528,29.8795111,https://waterdata.usgs.gov/nwis/inventory?agency_code=USGS&site_no=08171350
8171400,"San Marcos Rv nr Martindale, TX",-97.8423833,29.8322861,https://waterdata.usgs.gov/nwis/inventory?agency_code=USGS&site_no=08171400
8172000,"San Marcos Rv at Luling, TX",-97.6508314,29.66634037,https://waterdata.usgs.gov/nwis/inventory?agency_code=USGS&site_no=08172000
8172400,"Plum Ck at Lockhart, TX",-97.6791667,29.92299833,https://waterdata.usgs.gov/nwis/inventory?agency_code=USGS&site_no=08172400
8173000,"Plum Ck nr Luling, TX",-97.6036082,29.699673,https://waterdata.usgs.gov/nwis/inventory?agency_code=USGS&site_no=08173000
8173900,"Guadalupe Rv at Gonzales, TX",-97.4502702,29.48440414,https://waterdata.usgs.gov/nwis/inventory?agency_code=USGS&site_no=08173900
8174200,"Sandy Fork Ck at Hwy 97 nr Waelder, TX",-97.3207444,29.62491389,https://waterdata.usgs.gov/nwis/inventory?agency_code=USGS&site_no=08174200
8174550,"Peach Creek at Hwy 90 nr Waelder, TX",-97.2308167,29.68580278,https://waterdata.usgs.gov/nwis/inventory?agency_code=USGS&site_no=08174550
8174600,"Peach Ck bl Dilworth, TX",-97.3166565,29.47412787,https://waterdata.usgs.gov/nwis/inventory?agency_code=USGS&site_no=08174600
8174700,"Guadalupe Rv at Hwy 183 nr Hochheim, TX",-97.3035,29.31446667,https://waterdata.usgs.gov/nwis/inventory?agency_code=USGS&site_no=08174700
8174970,"Sandies Ck at FM 108 nr Smiley, TX",-97.6207556,29.29175556,https://waterdata.usgs.gov/nwis/inventory?agency_code=USGS&site_no=08174970
8175000,"Sandies Ck nr Westhoff, TX",-97.4494353,29.2152475,https://waterdata.usgs.gov/nwis/inventory?agency_code=USGS&site_no=08175000
8175800,"Guadalupe Rv at Cuero, TX",-97.3297129,29.09053147,https://waterdata.usgs.gov/nwis/inventory?agency_code=USGS&site_no=08175800
8176500,"Guadalupe Rv at Victoria, TX",-97.0130429,28.7930456,https://waterdata.usgs.gov/nwis/inventory?agency_code=USGS&site_no=08176500
8176550,"Fifteenmile Ck nr Weser, TX",-97.3549922,28.89776103,https://waterdata.usgs.gov/nwis/inventory?agency_code=USGS&site_no=08176550
8176900,"Coleto Ck at Arnold Rd Crsg nr Schroeder, TX",-97.2263791,28.86165308,https://waterdata.usgs.gov/nwis/inventory?agency_code=USGS&site_no=08176900
8177300,"Perdido Ck at FM 622 nr Fannin, TX",-97.3172142,28.7516564,https://waterdata.usgs.gov/nwis/inventory?agency_code=USGS&site_no=08177300
8177500,"Coleto Ck nr Victoria, TX",-97.1386004,28.73110317,https://waterdata.usgs.gov/nwis/inventory?agency_code=USGS&site_no=08177500
8177520,"Guadalupe Rv nr Bloomington, TX",-96.9652778,28.66194444,https://waterdata.usgs.gov/nwis/inventory?agency_code=USGS&site_no=08177520
8177700,"Olmos Ck at Dresden Dr, San Antonio, TX",-98.5102958,29.4991192,https://waterdata.usgs.gov/nwis/inventory?agency_code=USGS&site_no=08177700
8178000,"San Antonio Rv at San Antonio, TX",-98.495017,29.40967796,https://waterdata.usgs.gov/nwis/inventory?agency_code=USGS&site_no=08178000
8178050,"San Antonio Rv at Mitchell St, San Antonio, TX",-98.4947392,29.39301189,https://waterdata.usgs.gov/nwis/inventory?agency_code=USGS&site_no=08178050
8178500,"San Pedro Ck at Furnish St, San Antonio, TX",-98.5108508,29.4063447,https://waterdata.usgs.gov/nwis/inventory?agency_code=USGS&site_no=08178500
8178565,"San Antonio Rv at Loop 410, San Antonio, TX",-98.4502932,29.32218127,https://waterdata.usgs.gov/nwis/inventory?agency_code=USGS&site_no=08178565
8178585,"Salado Ck at Wilderness Rd, San Antonio, TX",-98.5655755,29.63078135,https://waterdata.usgs.gov/nwis/inventory?agency_code=USGS&site_no=08178585
8178593,"Salado Ck at Blanco Rd. San Antonio, Tx",-98.5196667,29.5638611,https://waterdata.usgs.gov/nwis/inventory?agency_code=USGS&site_no=08178593
8178700,"Salado Ck at Loop 410, San Antonio, TX",-98.4311271,29.5160633,https://waterdata.usgs.gov/nwis/inventory?agency_code=USGS&site_no=08178700
8178800,"Salado Ck at Loop 13, San Antonio, TX",-98.4127925,29.35718017,https://waterdata.usgs.gov/nwis/inventory?agency_code=USGS&site_no=08178800
8178861,"N Prong Medina Rv at Brewington Ck nr Medina, TX",-99.3488333,29.87533333,https://waterdata.usgs.gov/nwis/inventory?agency_code=USGS&site_no=08178861
8178871,"W Prong Medina Rv at Carpenter Ck Rd nr Medina, TX",-99.3792778,29.78013889,https://waterdata.usgs.gov/nwis/inventory?agency_code=USGS&site_no=08178871
817887350,"Medina Rv at Patterson Rd at Medina, TX",-99.2485944,29.79389167,https://waterdata.usgs.gov/nwis/inventory?agency_code=USGS&site_no=0817887350
8178880,"Medina Rv at Bandera, TX",-99.070035,29.72383537,https://waterdata.usgs.gov/nwis/inventory?agency_code=USGS&site_no=08178880
8178980,"Medina Rv abv English Crsg nr Pipe Creek, TX",-98.9793056,29.69438889,https://waterdata.usgs.gov/nwis/inventory?agency_code=USGS&site_no=08178980
8179110,"Red Bluff Ck at FM 1283 nr Pipe Creek, TX",-98.9603091,29.6732811,https://waterdata.usgs.gov/nwis/inventory?agency_code=USGS&site_no=08179110
8180500,"Medina Rv nr Riomedina, TX",-98.9055,29.498,https://waterdata.usgs.gov/nwis/inventory?agency_code=USGS&site_no=08180500
8180586,"San Geronimo Ck nr Helotes, TX",-98.7951528,29.61972778,https://waterdata.usgs.gov/nwis/inventory?agency_code=USGS&site_no=08180586
8180640,"Medina Rv at La Coste, TX",-98.813081,29.3241246,https://waterdata.usgs.gov/nwis/inventory?agency_code=USGS&site_no=08180640
8180700,"Medina Rv nr Macdona, TX",-98.689744,29.33495798,https://waterdata.usgs.gov/nwis/inventory?agency_code=USGS&site_no=08180700
8180800,"Medina Rv nr Somerset, TX",-98.5814074,29.26218286,https://waterdata.usgs.gov/nwis/inventory?agency_code=USGS&site_no=08180800
8180941,"Culebra Ck in GCSNA nr Helotes, TX",-98.7513889,29.53916667,https://waterdata.usgs.gov/nwis/inventory?agency_code=USGS&site_no=08180941
8180990,"Leon Ck at IH 10 and Loop 1604 nr San Antonio, TX",-98.5991667,29.59305556,https://waterdata.usgs.gov/nwis/inventory?agency_code=USGS&site_no=08180990
8181400,"Helotes Ck at Helotes, TX",-98.6916896,29.57856108,https://waterdata.usgs.gov/nwis/inventory?agency_code=USGS&site_no=08181400
8181435,"Leon Ck at Lp 410 at San Antonio, TX",-98.6337111,29.447875,https://waterdata.usgs.gov/nwis/inventory?agency_code=USGS&site_no=08181435
8181480,"Leon Ck at IH 35, San Antonio, TX",-98.5841856,29.32995837,https://waterdata.usgs.gov/nwis/inventory?agency_code=USGS&site_no=08181480
8181500,"Medina Rv at San Antonio, TX",-98.4908493,29.2641276,https://waterdata.usgs.gov/nwis/inventory?agency_code=USGS&site_no=08181500
8181725,San Antonio Rv nr Victor Braunig Lk nr ElmendorfTX,-98.4026083,29.2354111,https://waterdata.usgs.gov/nwis/inventory?agency_code=USGS&site_no=08181725
8181800,"San Antonio Rv nr Elmendorf, TX",-98.3558463,29.2221853,https://waterdata.usgs.gov/nwis/inventory?agency_code=USGS&site_no=08181800
8183200,"San Antonio Rv nr Floresville, TX",-98.1744444,29.11,https://waterdata.usgs.gov/nwis/inventory?agency_code=USGS&site_no=08183200
8183500,"San Antonio Rv nr Falls City, TX",-98.0641723,28.95164067,https://waterdata.usgs.gov/nwis/inventory?agency_code=USGS&site_no=08183500
8183900,"Cibolo Ck nr Boerne, TX",-98.7094694,29.77498889,https://waterdata.usgs.gov/nwis/inventory?agency_code=USGS&site_no=08183900
8183978,"Cibolo Ck at Specht Rd nr. Bulverde, TX",-98.4933722,29.73677778,https://waterdata.usgs.gov/nwis/inventory?agency_code=USGS&site_no=08183978
8184050,"Cibolo Ck at Smithson Valley Rd nr Bulverde, TX",-98.4076833,29.74826667,https://waterdata.usgs.gov/nwis/inventory?agency_code=USGS&site_no=08184050
8185000,"Cibolo Ck at Selma, TX",-98.3111242,29.5941166,https://waterdata.usgs.gov/nwis/inventory?agency_code=USGS&site_no=08185000
8185065,"Cibolo Ck nr Saint Hedwig, TX",-98.18625,29.50144444,https://waterdata.usgs.gov/nwis/inventory?agency_code=USGS&site_no=08185065
8185100,"Martinez Ck nr Saint Hedwig, TX",-98.1688889,29.44388889,https://waterdata.usgs.gov/nwis/inventory?agency_code=USGS&site_no=08185100
8185500,"Cibolo Ck at Sutherland Springs, TX",-98.0533333,29.2797222,https://waterdata.usgs.gov/nwis/inventory?agency_code=USGS&site_no=08185500
8186000,"Cibolo Ck nr Falls City, TX",-97.9302808,29.01413869,https://waterdata.usgs.gov/nwis/inventory?agency_code=USGS&site_no=08186000
8186500,"Ecleto Ck nr Runge, TX",-97.7722221,28.92025419,https://waterdata.usgs.gov/nwis/inventory?agency_code=USGS&site_no=08186500
8187500,"Escondido Ck at Kenedy, TX",-97.859168,28.81998007,https://waterdata.usgs.gov/nwis/inventory?agency_code=USGS&site_no=08187500
8188060,"San Antonio Rv at SH 72 nr Runge, TX",-97.7371389,28.84869444,https://waterdata.usgs.gov/nwis/inventory?agency_code=USGS&site_no=08188060
8188500,"San Antonio Rv at Goliad, TX",-97.3848583,28.6492861,https://waterdata.usgs.gov/nwis/inventory?agency_code=USGS&site_no=08188500
8188570,"San Antonio Rv nr McFaddin, TX",-97.0426944,28.53125,https://waterdata.usgs.gov/nwis/inventory?agency_code=USGS&site_no=08188570
8188590,"North end of GBRA Calhoun Canal nr Long Mott,TX",-96.7814278,28.50548889,https://waterdata.usgs.gov/nwis/inventory?agency_code=USGS&site_no=08188590
8188800,"Guadalupe Rv nr Tivoli, TX",-96.8847084,28.5058337,https://waterdata.usgs.gov/nwis/inventory?agency_code=USGS&site_no=08188800
8188810,"Guadalupe Rv at SH 35 nr Tivoli, TX",-96.8627635,28.47833444,https://waterdata.usgs.gov/nwis/inventory?agency_code=USGS&site_no=08188810
8189200,"Copano Ck nr Refugio, TX",-97.1124913,28.30361693,https://waterdata.usgs.gov/nwis/inventory?agency_code=USGS&site_no=08189200
8189300,"Medio Ck nr Beeville, TX",-97.656663,28.48305164,https://waterdata.usgs.gov/nwis/inventory?agency_code=USGS&site_no=08189300
8189500,"Mission Rv at Refugio, TX",-97.2791593,28.29195088,https://waterdata.usgs.gov/nwis/inventory?agency_code=USGS&site_no=08189500
8189700,"Aransas Rv nr Skidmore, TX",-97.620829,28.28250426,https://waterdata.usgs.gov/nwis/inventory?agency_code=USGS&site_no=08189700
818999010,"Nueces Rv nr Barksdale, TX",-100.039575,29.71883333,https://waterdata.usgs.gov/nwis/inventory?agency_code=USGS&site_no=0818999010
8189998,"Nueces Rv at CR 414 at Montell, TX",-100.0183667,29.52646667,https://waterdata.usgs.gov/nwis/inventory?agency_code=USGS&site_no=08189998
8190000,"Nueces Rv at Laguna, TX",-99.997287,29.42856679,https://waterdata.usgs.gov/nwis/inventory?agency_code=USGS&site_no=08190000
8190500,"W Nueces Rv nr Brackettville, TX",-100.2391667,29.48108333,https://waterdata.usgs.gov/nwis/inventory?agency_code=USGS&site_no=08190500
8192000,"Nueces Rv bl Uvalde, TX",-99.8947822,29.12385307,https://waterdata.usgs.gov/nwis/inventory?agency_code=USGS&site_no=08192000
8193000,"Nueces Rv nr Asherton, TX",-99.6819935,28.50026313,https://waterdata.usgs.gov/nwis/inventory?agency_code=USGS&site_no=08193000
8194000,"Nueces Rv at Cotulla, TX",-99.2400322,28.42637889,https://waterdata.usgs.gov/nwis/inventory?agency_code=USGS&site_no=08194000
8194200,"San Casimiro Ck nr Freer, TX",-98.9669678,27.96501329,https://waterdata.usgs.gov/nwis/inventory?agency_code=USGS&site_no=08194200
8194500,"Nueces Rv nr Tilden, TX",-98.5572384,28.30888906,https://waterdata.usgs.gov/nwis/inventory?agency_code=USGS&site_no=08194500
8194840,"Frio Rv at Leakey, TX",-99.75345,29.72298333,https://waterdata.usgs.gov/nwis/inventory?agency_code=USGS&site_no=08194840
8195000,"Frio Rv at Concan, TX",-99.7047756,29.48856496,https://waterdata.usgs.gov/nwis/inventory?agency_code=USGS&site_no=08195000
8196000,"Dry Frio Rv nr Reagan Wells, TX",-99.7814452,29.50467576,https://waterdata.usgs.gov/nwis/inventory?agency_code=USGS&site_no=08196000
8196300,"Dry Frio Rv at FM 2690 nr Knippa, TX",-99.7041667,29.3736111,https://waterdata.usgs.gov/nwis/inventory?agency_code=USGS&site_no=08196300
8197500,"Frio Rv bl Dry Frio Rv nr Uvalde, TX",-99.6744978,29.2457934,https://waterdata.usgs.gov/nwis/inventory?agency_code=USGS&site_no=08197500
8197936,"Sabinal Rv bl Mill Ck nr Vanderpool, TX",-99.5487,29.719,https://waterdata.usgs.gov/nwis/inventory?agency_code=USGS&site_no=08197936
8198000,"Sabinal Rv nr Sabinal, TX",-99.4928241,29.4910644,https://waterdata.usgs.gov/nwis/inventory?agency_code=USGS&site_no=08198000
8198500,"Sabinal Rv at Sabinal, TX",-99.4804722,29.31430556,https://waterdata.usgs.gov/nwis/inventory?agency_code=USGS&site_no=08198500
8200000,"Hondo Ck nr Tarpley, TX",-99.2476889,29.57003056,https://waterdata.usgs.gov/nwis/inventory?agency_code=USGS&site_no=08200000
8200720,"Hondo Ck at SH 173 nr Hondo, TX",-99.1166667,29.3761111,https://waterdata.usgs.gov/nwis/inventory?agency_code=USGS&site_no=08200720
8200977,"Middle Verde Ck at SH 173 nr Bandera, TX",-99.0969444,29.56777778,https://waterdata.usgs.gov/nwis/inventory?agency_code=USGS&site_no=08200977
8201500,"Seco Ck at Miller Rh nr Utopia, TX",-99.4030997,29.573284,https://waterdata.usgs.gov/nwis/inventory?agency_code=USGS&site_no=08201500
8202700,"Seco Ck at Rowe Rh nr D'Hanis, TX",-99.2878185,29.37078917,https://waterdata.usgs.gov/nwis/inventory?agency_code=USGS&site_no=08202700
8203450,"Leona Rv at CR 429A nr Uvalde, TX",-99.7488889,29.34527778,https://waterdata.usgs.gov/nwis/inventory?agency_code=USGS&site_no=08203450
8204005,"Leona Rv nr Uvalde, TX",-99.7433888,29.1544077,https://waterdata.usgs.gov/nwis/inventory?agency_code=USGS&site_no=08204005
8205500,"Frio Rv nr Derby, TX",-99.1447556,28.73664429,https://waterdata.usgs.gov/nwis/inventory?agency_code=USGS&site_no=08205500
8206600,"Frio Rv at Tilden, TX",-98.5475174,28.46749279,https://waterdata.usgs.gov/nwis/inventory?agency_code=USGS&site_no=08206600
8206700,"San Miguel Ck nr Tilden, TX",-98.5458513,28.58748787,https://waterdata.usgs.gov/nwis/inventory?agency_code=USGS&site_no=08206700
8206910,"Choke Canyon Res OWC nr Three Rivers, TX",-98.2416752,28.48610326,https://waterdata.usgs.gov/nwis/inventory?agency_code=USGS&site_no=08206910
8207500,"Atascosa Rv nr McCoy, TX",-98.3383454,28.86497693,https://waterdata.usgs.gov/nwis/inventory?agency_code=USGS&site_no=08207500
8208000,"Atascosa Rv at Whitsett, TX",-98.2813988,28.62220899,https://waterdata.usgs.gov/nwis/inventory?agency_code=USGS&site_no=08208000
8210000,"Nueces Rv nr Three Rivers, TX",-98.1780625,28.42749545,https://waterdata.usgs.gov/nwis/inventory?agency_code=USGS&site_no=08210000
8210400,"Lagarto Ck nr George West, TX",-98.0969482,28.05973533,https://waterdata.usgs.gov/nwis/inventory?agency_code=USGS&site_no=08210400
8211000,"Nueces Rv nr Mathis, TX",-97.8602769,28.03834719,https://waterdata.usgs.gov/nwis/inventory?agency_code=USGS&site_no=08211000
8211200,"Nueces Rv at Bluntzer, TX",-97.7758308,27.93779594,https://waterdata.usgs.gov/nwis/inventory?agency_code=USGS&site_no=08211200
8211500,"Nueces Rv at Calallen, TX",-97.625273,27.88307697,https://waterdata.usgs.gov/nwis/inventory?agency_code=USGS&site_no=08211500
8211503,"Rincon Bayou Channel nr Calallen, TX",-97.6255509,27.8969652,https://waterdata.usgs.gov/nwis/inventory?agency_code=USGS&site_no=08211503
8211520,"Oso Ck at Corpus Christi, TX",-97.5019377,27.71141879,https://waterdata.usgs.gov/nwis/inventory?agency_code=USGS&site_no=08211520
8211800,"San Diego Ck at Alice, TX",-98.0755556,27.76663889,https://waterdata.usgs.gov/nwis/inventory?agency_code=USGS&site_no=08211800
8211900,"San Fernando Ck at Alice, TX",-98.033613,27.77252575,https://waterdata.usgs.gov/nwis/inventory?agency_code=USGS&site_no=08211900
8212300,"Tranquitas Ck at Kingsville, TX",-97.8674982,27.52614624,https://waterdata.usgs.gov/nwis/inventory?agency_code=USGS&site_no=08212300
8212400,"Los Olmos Ck nr Falfurrias, TX",-98.1358378,27.26448618,https://waterdata.usgs.gov/nwis/inventory?agency_code=USGS&site_no=08212400
8212820,"Petronila Ck at FM 665 nr Driscoll, TX",-97.7022778,27.66525,https://waterdata.usgs.gov/nwis/inventory?agency_code=USGS&site_no=08212820
8364000,"RIO GRANDE AT EL PASO, TX",-106.5408218,31.80288488,https://waterdata.usgs.gov/nwis/inventory?agency_code=USGS&site_no=08364000
8374200,"Rio Grande bl Rio Conchos nr Presidio, TX",-104.2865896,29.51962973,https://waterdata.usgs.gov/nwis/inventory?agency_code=USGS&site_no=08374200
8374550,"Rio Grande nr Castolon, TX",-103.5249033,29.13798,https://waterdata.usgs.gov/nwis/inventory?agency_code=USGS&site_no=08374550
8375300,"Rio Grande at Rio Grande Village, Big Bnd NP, TX",-102.9754409,29.1835386,https://waterdata.usgs.gov/nwis/inventory?agency_code=USGS&site_no=08375300
8412500,"Pecos Rv nr Orla, TX",-103.8315824,31.87262648,https://waterdata.usgs.gov/nwis/inventory?agency_code=USGS&site_no=08412500
8419000,"Pecos Rv at FM 3398 nr Pecos, TX",-103.4901667,31.4838611,https://waterdata.usgs.gov/nwis/inventory?agency_code=USGS&site_no=08419000
8427000,"Giffin Spgs at Toyahvale, TX",-103.7890711,30.94764614,https://waterdata.usgs.gov/nwis/inventory?agency_code=USGS&site_no=08427000
8427500,"San Solomon Spgs at Toyahvale, TX",-103.7882377,30.94292408,https://waterdata.usgs.gov/nwis/inventory?agency_code=USGS&site_no=08427500
8433000,"Barrilla Draw nr Saragosa, TX",-103.459619,30.95792694,https://waterdata.usgs.gov/nwis/inventory?agency_code=USGS&site_no=08433000
8437710,"Pecos Rv at RR 1776 nr Grandfalls, TX",-103.0059908,31.3668055,https://waterdata.usgs.gov/nwis/inventory?agency_code=USGS&site_no=08437710
8446500,"Pecos Rv nr Girvin, TX",-102.4176419,31.11320329,https://waterdata.usgs.gov/nwis/inventory?agency_code=USGS&site_no=08446500
8447000,"Pecos Rv nr Sheffield, TX",-101.7701244,30.65961373,https://waterdata.usgs.gov/nwis/inventory?agency_code=USGS&site_no=08447000
8447020,"Independence Ck nr Sheffield, TX",-101.7331788,30.4521221,https://waterdata.usgs.gov/nwis/inventory?agency_code=USGS&site_no=08447020
8447300,"Pecos Rv at Brotherton Rh nr Pandale, TX",-101.7415556,30.314,https://waterdata.usgs.gov/nwis/inventory?agency_code=USGS&site_no=08447300
8449100,"Dolan Ck abv Devils River nr Comstock, TX",-100.9898028,29.888325,https://waterdata.usgs.gov/nwis/inventory?agency_code=USGS&site_no=08449100
8451800,"USIBW Rio Grande at Del Rio, TX & Acuna, MX",-100.9284283,29.33550774,https://waterdata.usgs.gov/nwis/inventory?agency_code=USIBW&site_no=08451800
8456310,"Las Moras Spgs Dws of pool at Brackettville,TX",-100.4192222,29.30791667,https://waterdata.usgs.gov/nwis/inventory?agency_code=USGS&site_no=08456310
8458000,"USIBW Rio Grande at Eagle Pass, TX",-100.5072994,28.71414303,https://waterdata.usgs.gov/nwis/inventory?agency_code=USIBW&site_no=08458000
8458975,"Manadas Ck at Laredo, TX",-99.5060389,27.57568333,https://waterdata.usgs.gov/nwis/inventory?agency_code=USGS&site_no=08458975
8458980,"Manadas Ck Trib at Bristol Rd nr Laredo, TX",-99.5147722,27.58387778,https://waterdata.usgs.gov/nwis/inventory?agency_code=USGS&site_no=08458980
8458993,"Zacate Ck at Jacaman Rd, Laredo, TX",-99.4711583,27.56122778,https://waterdata.usgs.gov/nwis/inventory?agency_code=USGS&site_no=08458993
8458995,"Zacate Ck at Laredo, TX",-99.5001833,27.5360972,https://waterdata.usgs.gov/nwis/inventory?agency_code=USGS&site_no=08458995
8459000,"Rio Grande at Laredo, TX",-99.4905972,27.49612957,https://waterdata.usgs.gov/nwis/inventory?agency_code=USGS&site_no=08459000
8464700,"Rio Grande at Ft Ringgold, Rio Grande City,TX",-98.8058599,26.3683991,https://waterdata.usgs.gov/nwis/inventory?agency_code=USGS&site_no=08464700
8470500,"Arroyo Colorado at FM 106, Rio Hondo, TX",-97.5847222,26.23527778,https://waterdata.usgs.gov/nwis/inventory?agency_code=USGS&site_no=08470500
8475000,"Rio Grande nr Brownsville, TX",-97.454426,25.87674793,https://waterdata.usgs.gov/nwis/inventory?agency_code=USGS&site_no=08475000